     2.11           OBSERVATION DATA    G (GPS)             RINEX VERSION / TYPE
teqc  2018Jul24     UNAVCO Archive Ops  20180728 01:05:54UTCPGM / RUN BY / DATE
Solaris x86 5.10|AMD64|cc SC5.8 -xarch=amd64|=+|=+          COMMENT
BIT 2 OF LLI FLAGS DATA COLLECTED UNDER A/S CONDITION       COMMENT
BAKU                                                        MARKER NAME
                                                            MARKER NUMBER
Robert Reilinger    Massachusetts Institute of Technology   OBSERVER / AGENCY
4450241652          TRIMBLE NETRS       1.1-3               REC # / TYPE / VERS
60186856            TRM41249.00     NONE                    ANT # / TYPE
  3139934.3352  3717507.3863  4109616.8112                  APPROX POSITION XYZ
        0.0000        0.0000        0.0000                  ANTENNA: DELTA H/E/N
     1     1                                                WAVELENGTH FACT L1/2
     7    L1    L2    C1    P2    P1    S1    S2            # / TYPES OF OBSERV
    30.0000                                                 INTERVAL
    18                                                      LEAP SECONDS
input file: baku_gia201807270000a.dat                       COMMENT
RINEX file created by UNAVCO GPS Archive.                   COMMENT
For more information contact archive-gps@unavco.org         COMMENT
Monument ID: 21793                                          COMMENT
UNAVCO 4-char name:   BAKU                                  COMMENT
4-char name from Log or data file: BAKU                     COMMENT
Monument location: 40.372176 49.814416 93.2                 COMMENT
Visit ID: 93826                                             COMMENT
End of DB comments                                          COMMENT
 SNR is mapped to RINEX snr flag value [0-9]                COMMENT
  L1 & L2: min(max(int(snr_dBHz/6), 0), 9)                  COMMENT
  2018     7    27     0     0    0.0000000     GPS         TIME OF FIRST OBS
                                                            END OF HEADER
 18  7 27  0  0  0.0000000  0 10G13G11G28G07G23G05G09G30G27G08
  -3951045.45046  -2991600.93642  24480778.1724   24480772.0044
        37.5004         17.2504
    -54034.198 5                  25850235.516
        33.500
 -15255751.77747 -11875712.16046  21160568.0164   21160563.4574
        46.5004         37.5004
 -26052550.59148 -20283316.21146  20724844.5084   20724840.0274
        51.0004         40.5004
  -3961225.53746  -2991125.44943  24339778.3674   24339771.9964
        37.5004         20.2504
 -13160125.20947 -10229096.68044  22891429.7974   22891425.3094
        43.5004         29.5004
 -16921162.09448 -13159406.34646  21708419.0784   21708416.0234
        49.0004         37.5004
 -22504473.39148 -17435834.75346  20671433.7504   20671431.6994
        50.0004         41.0004
  -8546570.72846  -6936408.92343  23974959.7034   23974957.3204
        39.5004         23.0004
 -14184781.12547 -11371777.76545  22602273.7974   22602270.6484
        44.7504         32.2504
 18  7 27  0  0 30.0000000  0 10G13G11G28G07G23G05G09G30G27G08
  -4055148.90446  -3072720.53543  24460967.9144   24460962.0314
        38.2504         18.2504
   -133805.761 5                  25835055.367
        35.000
 -15314416.29647 -11921424.76846  21149404.3834   21149400.2854
        46.2504         37.5004
 -26036039.67748 -20270450.58046  20727986.0394   20727981.7854
        51.7504         40.5004
  -3855679.52446  -2908881.76942  24359863.3594   24359856.2384
        37.5004         17.2504
 -13157607.39147 -10227134.76944  22891908.8364   22891904.3164
        43.0004         28.5004
 -16838632.29248 -13095097.41846  21724123.6644   21724121.2424
        49.7504         37.0004
 -22531105.12948 -17456586.75246  20666365.7664   20666363.2424
        50.0004         41.7504
  -8488709.64546  -6891322.35643  23985971.0704   23985967.1724
        38.2504         22.0004
 -14184505.26647 -11371562.78645  22602326.1254   22602323.4774
        43.2504         31.7504
 18  7 27  0  1  0.0000000  0 10G13G11G28G07G23G05G09G30G27G08
  -4159210.08146  -3153807.16843  24441165.5474   24441159.8714
        36.7504         18.5004
   -213602.861 5                  25819869.414
        34.250
 -15372656.64947 -11966806.85146  21138321.6094   21138317.3914
        46.0004         37.5004
 -26019299.95948 -20257406.64646  20731171.4304   20731166.7344
        51.2504         40.5004
  -3749973.94146  -2826513.81842  24379978.2734   24379970.8634
        36.7504         17.7504
 -13154524.57947 -10224732.58844  22892495.5944   22892490.3444
        43.0004         29.5004
 -16755758.97748 -13030520.82146  21739893.6174   21739891.8324
        49.0004         37.2504
 -22557490.49848 -17477146.78246  20661344.6414   20661342.1684
        48.7504         41.7504
  -8430337.96246  -6845837.95543  23997078.5164   23997076.3594
        38.5004         22.7504
 -14183638.12447 -11370887.07645  22602490.5784   22602488.3524
        43.5004         31.5004
 18  7 27  0  1 30.0000000  0 10G13G11G28G07G23G05G09G30G27G08
  -4263227.77946  -3234859.88843  24421371.1644   24421366.4804
        37.0004         18.2504
   -293423.313 5                  25804680.617
        35.000
 -15430473.10247 -12011858.62846  21127319.5234   21127314.9734
        46.2504         37.0004
 -26002331.66148 -20244184.59046  20734401.0314   20734395.9144
        51.5004         41.0004
  -3644111.09546  -2744023.26843  24400123.3674   24400115.7274
        37.2504         18.5004
 -13150878.13747 -10221891.19444  22893189.7424   22893184.3244
        43.7504         28.5004
 -16672544.29648 -12965678.23045  21755728.7504   21755727.1374
        48.0004         35.7504
 -22583630.06748 -17497515.27046  20656370.7424   20656368.3364
        50.2504         41.5004
  -8371458.30146  -6799957.71043  24008282.6564   24008280.3834
        38.0004         22.7504
 -14182180.07847 -11369750.91545  22602768.2584   22602765.5124
        43.7504         30.7504
 18  7 27  0  2  0.0000000  0 10G13G11G28G07G23G05G09G30G27G08
  -4367199.97846  -3315877.17243  24401586.6254   24401581.4574
        40.2504         19.0004
   -373264.414 5                  25789487.563
        35.000
 -15487864.43547 -12056579.13846  21116397.8134   21116393.1054
        45.7504         36.2504
 -25985134.77448 -20230784.42246  20737672.9384   20737668.2504
        51.7504         40.2504
  -3538092.55746  -2661411.41442  24420298.0784   24420291.6524
        38.7504         17.2504
 -13146668.56747 -10218611.02944  22893990.8984   22893984.9884
        42.5004         28.2504
 -16588989.47148 -12900570.59946  21771629.0554   21771627.2814
        48.0004         36.2504
 -22609523.39148 -17517691.88947  20651443.5704   20651441.4344
        49.2504         42.5004
  -8312072.32046  -6753682.93143  24019583.8284   24019580.7934
        39.0004         23.5004
 -14180130.63947 -11368153.92145  22603158.2194   22603155.5044
        42.5004         30.2504
 18  7 27  0  2 30.0000000  0 10G13G11G28G07G23G05G09G30G27G08
  -4471125.08046  -3396857.79543  24381810.7274   24381804.5514
        37.5004         18.2504
   -453123.442 5                  25774289.969
        35.750
 -15544830.52047 -12100968.29946  21105557.4534   21105552.4884
        45.2504         36.0004
 -25967709.79148 -20217206.51446  20740988.9534   20740983.8134
        51.0004         40.0004
  -3431920.69346  -2578680.06343  24440501.3834   24440494.8714
        36.2504         18.2504
 -13141896.75747 -10214892.72344  22894899.0164   22894893.2974
        45.0004         29.2504
 -16505096.35648 -12835199.33746  21787593.5314   21787591.8874
        48.2504         37.0004
 -22635170.57648 -17537676.71047  20646562.9224   20646560.6764
        49.5004         42.0004
  -8252182.38946  -6707015.46043  24030981.0314   24030977.7304
        39.5004         22.5004
 -14177489.69447 -11366096.01945  22603660.9064   22603658.1214
        43.7504         31.2504
 18  7 27  0  3  0.0000000  0 10G13G11G28G07G23G05G09G30G27G08
  -4575000.97946  -3477800.03743  24362044.0784   24362038.3794
        38.0004         19.5004
   -532997.271 6                  25759091.141
        37.000
 -15601370.17247 -12145025.16545  21094798.4144   21094793.2774
        45.0004         35.5004
 -25950056.03548 -20203450.33946  20744348.0474   20744343.4144
        51.2504         39.7504
  -3325596.60246  -2495830.15142  24460733.9304   24460727.7544
        37.2504         17.7504
 -13136562.67547 -10210736.30244  22895913.5004   22895908.8484
        43.0004         28.7504
 -16420866.05448 -12769565.33546  21803621.9064   21803620.2624
        48.5004         36.7504
 -22660571.08648 -17557469.31047  20641729.5864   20641726.7234
        50.0004         42.0004
  -8191789.95146  -6659956.41043  24042472.5704   24042470.3634
        38.7504         22.7504
 -14174256.72047 -11363576.80845  22604276.4454   22604273.6294
        45.5004         31.7504
 18  7 27  0  3 30.0000000  0 10G13G11G28G07G23G05G09G30G27G08
  -4678825.79246  -3558702.45443  24342286.2734   24342281.3594
        37.7504         19.0004
   -612883.119 6                  25743889.844
        36.750
 -15657482.39647 -12188748.97045  21084120.6254   21084114.7304
        45.2504         35.5004
 -25932173.41648 -20189515.81746  20747751.0004   20747746.0864
        51.5004         40.0004
  -3219122.00446  -2412862.90142  24480994.7344   24480990.3554
        37.7504         17.7504
 -13130667.45747 -10206142.64845  22897035.7114   22897030.4844
        43.0004         30.2504
 -16336299.89648 -12703669.63146  21819714.1724   21819712.9104
        48.5004         37.5004
 -22685724.57748 -17577069.42347  20636942.7894   20636940.0004
        49.7504         42.0004
  -8130896.87746  -6612507.26343  24054059.9534   24054057.8444
        39.0004         22.7504
 -14170431.08247 -11360595.77445  22605004.3984   22605001.7854
        43.7504         31.5004
 18  7 27  0  4  0.0000000  0 10G13G11G28G07G23G05G09G30G27G08
  -4782597.72646  -3639563.71543  24322539.9534   24322533.3594
        38.5004         18.5004
   -692778.428 6                  25728686.320
        36.750
 -15713166.93247 -12232139.51745  21073524.1414   21073518.4924
        46.5004         35.2504
 -25914062.29748 -20175403.24746  20751197.4384   20751192.3284
        50.7504         39.7504
  -3112498.92246  -2329779.96942  24501282.9924   24501278.9184
        37.5004         17.2504
 -13124212.20547 -10201112.56845  22898264.5704   22898259.2584
        43.7504         30.0004
 -16251399.80648 -12637513.71946  21835870.6954   21835869.2034
        49.0004         37.5004
 -22710631.22448 -17596477.19147  20632203.4614   20632200.8954
        50.2504         42.5004
  -8069505.63646  -6564669.94743  24065742.3594   24065740.5044
        37.5004         22.0004
 -14166012.95447 -11357153.05245  22605845.3754   22605842.7304
        44.7504         31.2504
 18  7 27  0  4 30.0000000  0 10G13G11G28G07G23G05G09G30G27G08
  -4886314.79246  -3720382.19843  24302801.9694   24302795.8094
        38.5004         18.2504
   -772680.454 5                  25713480.727
        35.750
 -15768423.21447 -12275196.35745  21063009.2344   21063003.6724
        46.5004         34.7504
 -25895722.67748 -20161112.63146  20754687.2664   20754681.7154
        51.0004         39.0004
  -3005729.16646  -2246582.75742  24521601.6094   24521596.0164
        36.7504         16.7504
 -13117197.26147 -10195646.38345  22899599.0704   22899594.1844
        44.5004         30.7504
 -16166167.07848 -12571098.59746  21852089.5314   21852088.1884
        48.2504         37.0004
 -22735290.64448 -17615692.31147  20627510.5704   20627508.1254
        50.5004         42.5004
  -8007618.02746  -6516445.81643  24077519.3364   24077517.1884
        38.7504         22.7504
 -14161002.22347 -11353248.57345  22606797.7894   22606796.4184
        44.0004         31.5004
 18  7 27  0  5  0.0000000  0 10G13G11G28G07G23G05G09G30G27G08
  -4989974.84046  -3801156.28443  24283076.4224   24283070.5744
        38.7504         19.2504
   -852586.271 5                  25698274.672
        35.750
 -15823250.51447 -12317918.92645  21052576.1024   21052570.2274
        47.7504         35.2504
 -25877154.14248 -20146643.63046  20758220.9454   20758215.3484
        50.5004         39.0004
  -2898814.51046  -2163272.61642  24541947.2734   24541940.7814
        37.2504         17.2504
 -13109623.43047 -10189744.70945  22901040.0634   22901035.6254
        44.5004         30.5004
 -16080603.18048 -12504425.43446  21868371.6484   21868370.2814
        49.0004         36.7504
 -22759702.60548 -17634714.61347  20622865.4224   20622863.1954
        50.7504         42.0004
  -7945236.03446  -6467836.50043  24089390.2194   24089387.3324
        39.5004         21.5004
 -14155398.66747 -11348882.15945  22607864.7584   22607862.7424
        43.2504         31.7504
 18  7 27  0  5 30.0000000  0 10G13G11G28G07G23G05G09G30G27G08
  -5093576.24146  -3881884.64443  24263361.0944   24263356.1484
        40.0004         18.2504
   -932492.956 5                  25683070.148
        34.750
 -15877647.96847 -12360306.55445  21042224.5164   21042218.8284
        47.5004         35.0004
 -25858356.47548 -20131996.08646  20761797.8444   20761792.6414
        51.0004         39.5004
  -2791756.64145  -2079850.90242  24562319.6484   24562312.9144
        35.5004         16.2504
 -13101491.43647 -10183408.08244  22902587.5944   22902583.2304
        44.2504         29.5004
 -15994709.69848 -12437495.45946  21884716.4064   21884715.1764
        48.0004         36.7504
 -22783866.88048 -17653543.91247  20618267.1254   20618264.1844
        50.7504         42.5004
  -7882361.66446  -6418843.51743  24101354.0944   24101352.3204
        40.0004         21.7504
 -14149201.88347 -11344053.48445  22609043.9384   22609041.6454
        43.2504         32.5004
 18  7 27  0  6  0.0000000  0 10G13G11G28G07G23G05G09G30G27G08
  -5197117.11246  -3962565.84843  24243658.4304   24243653.6914
        40.0004         19.7504
  -1012397.674 5                  25667863.641
        35.750
 -15931614.83948 -12402358.66445  21031954.5784   21031949.6254
        48.0004         35.0004
 -25839329.78648 -20117170.09046  20765418.2344   20765412.8284
        51.0004         39.2504
  -2684557.66845  -1996319.20742  24582721.1174   24582711.9264
        35.5004         16.2504
 -13092802.43347 -10176637.43045  22904241.3204   22904236.7074
        46.2504         30.0004
 -15908488.26647 -12370309.93046  21901124.2814   21901121.5784
        47.5004         36.2504
 -22807783.38448 -17672180.13747  20613716.1954   20613713.2464
        51.5004         42.2504
  -7818997.23146  -6369468.60143  24113413.2194   24113410.2734
        40.2504         22.7504
 -14142412.09047 -11338762.72945  22610335.4694   22610334.1524
        44.7504         32.7504
 18  7 27  0  6 30.0000000  0 10G13G11G28G07G23G05G09G30G27G08
  -5300595.49946  -4043198.33143  24223967.3524   24223962.1724
        40.2504         21.0004
  -1092298.022 6                  25652659.453
        36.000
 -15985151.03647 -12444075.18145  21021766.8984   21021761.9494
        47.2504         35.5004
 -25820074.15048 -20102165.69746  20769082.5164   20769077.6684
        50.5004         38.7504
  -2577219.46546  -1912679.03342  24603145.3984   24603139.6764
        36.7504         15.5004
 -13083557.09247 -10169433.25945  22906000.5084   22905995.6334
        47.2504         30.2504
 -15821940.55348 -12302870.17645  21917593.8914   21917590.6454
        48.0004         34.7504
 -22831452.03748 -17690623.23047  20609211.7504   20609209.4614
        51.2504         42.0004
  -7755144.77946  -6319713.46043  24125563.4614   24125560.4774
        39.2504         22.2504
 -14135029.16247 -11333009.77245  22611740.6644   22611739.3634
        44.2504         32.0004
 18  7 27  0  7  0.0000000  0 10G13G11G28G07G23G05G09G30G27G08
  -5404009.18446  -4123780.41443  24204288.9774   24204283.5274
        40.7504         20.5004
  -1172190.88146  -1924486.28852  25637457.0394   25637450.6174
        36.2504         17.7504
 -16038256.25647 -12485455.86745  21011661.4064   21011656.2344
        46.5004         35.2504
 -25800589.54548 -20086982.88546  20772790.4694   20772785.4304
        51.0004         39.0004
  -2469743.59845  -1828931.60542  24623597.5474   24623592.2384
        35.0004         15.5004
 -13073756.12747 -10161796.13145  22907865.4534   22907860.9844
        44.5004         30.0004
 -15735067.88748 -12235177.18745  21934125.5784   21934122.1254
        48.5004         35.0004
 -22854872.34648 -17708872.81147  20604755.2034   20604752.7774
        51.7504         42.7504
  -7690806.33646  -6269579.61143  24137806.7194   24137804.2304
        38.7504         22.2504
 -14127052.94147 -11326794.51845  22613258.9384   22613257.3834
        43.2504         33.5004
 18  7 27  0  7 30.0000000  0 10G13G11G28G07G23G05G09G30G27G08
  -5507355.62146  -4204310.06743  24184623.2034   24184616.1134
        40.7504         20.2504
  -1252072.86746  -1986732.01842  25622255.8524   25622248.9384
        36.0004         15.5004
 -16090928.44547 -12526499.12245  21001638.4924   21001633.3364
        46.0004         35.5004
 -25780875.12748 -20071621.01646  20776541.8914   20776537.6134
        50.2504         39.2504
  -2362131.29545  -1745077.91942  24644074.2114   24644069.4454
        35.5004         17.2504
 -13063400.15347 -10153726.55645  22909836.6254   22909831.8484
        45.2504         30.5004
 -15647871.15448 -12167231.66445  21950718.6174   21950714.8754
        49.0004         35.0004
 -22878043.45648 -17726928.22147  20600345.1484   20600343.0124
        50.0004         42.0004
  -7625983.18246  -6219068.06243  24150141.7344   24150139.0044
        38.0004         22.7504
 -14118482.88047 -11320116.57045  22614889.7664   22614887.6254
        43.7504         33.0004
 18  7 27  0  8  0.0000000  0 10G13G11G28G07G23G05G09G30G27G08
  -5610633.63046  -4284786.44843  24164969.6254   24164963.4384
        40.5004         19.5004
  -1331941.82745  -2048967.70642  25607057.5554   25607049.9224
        34.0004         15.5004
 -16143168.00447 -12567205.26446  20991697.4144   20991692.2584
        45.5004         36.0004
 -25760931.62448 -20056080.63446  20780337.1024   20780332.4884
        50.7504         39.7504
  -2254384.84145  -1661119.54842  24664580.1804   24664572.7664
        35.0004         16.2504
 -13052490.69047 -10145225.67545  22911912.3204   22911908.4104
        46.0004         30.5004
 -15560352.67048 -12099035.42745  21967372.3594   21967368.8204
        49.2504         34.7504
 -22900965.82848 -17744789.79947  20595983.5554   20595981.4454
        50.7504         42.0004
  -7560678.14646  -6168181.05343  24162569.7504   24162566.9454
        37.7504         22.2504
 -14109319.43947 -11312976.22345  22616632.7344   22616631.4414
        42.5004         32.2504
 18  7 27  0  8 30.0000000  0 10G13G11G28G07G23G05G09G30G27G08
  -5713841.46146  -4365208.14743  24145329.7274   24145323.1134
        40.5004         19.0004
  -1411794.39245  -2111190.40542  25591861.9064   25591855.0944
        34.2504         14.7504
 -16194974.36147 -12607573.86646  20981839.5784   20981834.1214
        46.5004         36.2504
 -25740758.82148 -20040361.58046  20784175.8754   20784171.5164
        50.5004         39.5004
  -2146506.55245  -1577058.55142  24685106.9844   24685100.7274
        34.2504         16.2504
 -13041028.48747 -10136294.11045  22914093.3834   22914089.4104
        46.0004         30.0004
 -15472514.11248 -12030589.80345  21984086.8754   21984084.7344
        48.0004         34.7504
 -22923639.37748 -17762457.49546  20591668.8134   20591666.6174
        50.0004         41.7504
  -7494893.65046  -6116920.40644  24175088.0784   24175085.3054
        40.0004         24.5004
 -14099562.52247 -11305373.41445  22618489.3984   22618487.8524
        43.5004         32.7504
 18  7 27  0  9  0.0000000  0 10G13G11G28G07G23G05G09G30G27G08
  -5816976.52246  -4445573.13643  24125703.1254   24125697.1844
        40.2504         18.5004
  -1491627.39945  -2173397.90042  25576670.7344   25576663.8834
        34.5004         17.2504
 -16246346.80147 -12647604.33646  20972063.6884   20972057.9454
        46.2504         36.7504
 -25720356.21448 -20024463.43946  20788058.3834   20788054.2894
        50.7504         40.2504
  -2038497.84246  -1492895.97942  24705661.3204   24705653.8794
        36.0004         15.5004
 -13029014.05147 -10126932.21445  22916379.3444   22916375.2234
        47.5004         30.7504
 -15384356.50547 -11961895.55845  22000862.7894   22000860.6644
        47.5004         35.0004
 -22946063.23148 -17779930.62646  20587401.6094   20587399.4064
        49.0004         41.0004
  -7428631.17546  -6065287.31044  24187697.5314   24187695.4574
        39.0004         24.5004
 -14089211.95147 -11297308.02445  22620459.3444   22620457.5314
        45.0004         33.2504
 18  7 27  0  9 30.0000000  0 10G13G11G28G07G23G05G09G30G27G08
  -5920036.95846  -4525879.92643  24106091.6254   24106086.1134
        40.7504         19.2504
  -1571438.80546  -2235588.65842  25561483.3754   25561476.5904
        36.0004         17.2504
 -16297285.04648 -12687296.48046  20962370.3674   20962364.9844
        48.2504         37.0004
 -25699724.14948 -20008386.52746  20791984.4694   20791980.5164
        50.0004         40.2504
  -1930360.36646  -1408632.96742  24726238.9614   24726231.2774
        36.0004         14.7504
 -13016448.86947 -10117141.15245  22918770.3754   22918766.1484
        46.5004         31.2504
 -15295881.89847 -11892954.32245  22017699.2274   22017696.9104
        47.5004         35.7504
 -22968237.66348 -17797209.40347  20583181.8674   20583179.6024
        50.2504         42.0004
  -7361893.31446  -6013283.79043  24200397.4844   24200395.0664
        39.0004         23.2504
 -14078268.21747 -11288780.43245  22622542.0164   22622540.3794
        45.0004         33.7504
 18  7 27  0 10  0.0000000  0 10G13G11G28G07G23G05G09G30G27G08
  -6023020.74346  -4606127.03243  24086494.3524   24086488.8524
        40.2504         19.5004
  -1651225.77445  -2297760.32543  25546298.8674   25546293.6914
        35.5004         18.5004
 -16347788.55947 -12726649.86546  20952760.1254   20952754.6214
        47.5004         38.0004
 -25678862.50148 -19992130.70446  20795954.4384   20795950.1054
        50.5004         39.5004
  -1822096.19745  -1324271.25242  24746841.2814   24746833.4844
        34.5004         14.7504
 -13003333.96747 -10106921.74545  22921266.7584   22921261.8364
        44.2504         30.5004
 -15207091.91447 -11823767.32845  22034595.3524   22034593.7894
        47.2504         35.2504
 -22990162.42948 -17814293.63347  20579010.0004   20579007.7194
        50.2504         42.0004
  -7294682.20946  -5960911.54444  24213187.2504   24213184.3954
        39.2504         26.5004
 -14066731.44647 -11279790.73945  22624737.0784   22624735.6484
        42.5004         33.0004
 18  7 27  0 10 30.0000000  0 10G13G11G28G07G23G05G09G30G27G08
  -6125925.74446  -4686312.74243  24066912.2974   24066907.2544
        40.5004         20.2504
  -1730984.83345  -2359910.23443  25531123.5394   25531116.6884
        35.5004         18.5004
 -16397856.62347 -12765663.94246  20943232.2424   20943227.1414
        47.5004         37.5004
 -25657770.75248 -19975695.57646  20799967.8284   20799963.4734
        51.0004         39.2504
  -1713706.80545  -1239812.04842  24767466.3594   24767458.8054
        35.5004         17.2504
 -12989670.00447 -10096274.49645  22923866.7344   22923861.9694
        44.0004         31.7504
 -15117987.75947 -11754335.51845  22051551.0944   22051549.7544
        46.2504         35.5004
 -23011836.88348 -17831182.81546  20574885.6564   20574882.9574
        50.2504         41.7504
  -7226999.81646  -5908172.00844  24226066.6484   24226063.8794
        39.2504         25.0004
 -14054601.29346 -11270338.66845  22627045.4454   22627044.0904
        41.0004         33.2504
 18  7 27  0 11  0.0000000  0 10G13G11G28G07G23G05G09G30G27G08
  -6228750.14446  -4766435.63743  24047344.7894   24047340.0514
        40.2504         20.0004
  -1810713.46046  -2422036.46342  25515950.3054   25515944.4844
        36.0004         16.2504
 -16447489.00347 -12804338.52046  20933787.5084   20933782.5394
        45.7504         37.5004
 -25636449.15348 -19959081.35046  20804025.4304   20804020.8914
        50.7504         38.7504
  -1605194.63846  -1155257.02042  24788115.9844   24788107.9344
        37.0004         16.7504
 -12975458.33347 -10085200.44245  22926571.0554   22926566.6994
        45.2504         30.5004
 -15028571.42247 -11684660.45845  22068566.4454   22068565.4774
        46.2504         34.7504
 -23033261.15248 -17847877.04947  20570808.4144   20570806.0864
        50.0004         42.0004
  -7158848.57046  -5855067.15043  24239035.3984   24239032.5044
        38.7504         22.7504
 -14041877.90547 -11260424.32745  22629467.1094   22629465.9264
        43.5004         34.0004
 18  7 27  0 11 30.0000000  0 10G13G11G28G07G23G05G09G30G27G08
  -6331491.91946  -4846494.14243  24027794.0784   24027788.0234
        39.7504         20.0004
  -1890408.80146  -2484136.71343  25500785.4064   25500779.2774
        36.5004         19.0004
 -16496685.45348 -12842673.42346  20924425.6414   20924420.7934
        48.0004         37.2504
 -25614897.67948 -19942287.98646  20808126.8054   20808121.2424
        50.7504         38.0004
  -1496561.46646  -1070607.77442  24808787.6954   24808780.4844
        36.5004         15.5004
 -12960699.78347 -10073700.27345  22929379.7894   22929375.2854
        46.2504         31.2504
 -14938844.52347 -11614743.39945  22085641.1804   22085639.3674
        47.0004         34.5004
 -23054434.95948 -17864376.10446  20566779.1804   20566776.7544
        50.7504         41.7504
  -7090230.70346  -5801598.71043  24252093.6254   24252090.2544
        38.0004         23.5004
 -14028561.95147 -11250048.25945  22632000.5314   22631999.6094
        44.5004         34.0004
 18  7 27  0 12  0.0000000  0 10G13G11G28G07G23G05G09G30G27G08
  -6434148.57146  -4926486.30243  24008257.5234   24008253.2304
        38.7504         19.0004
  -1970067.68745  -2546208.59442  25485626.0164   25485621.1174
        34.7504         16.2504
 -16545444.83248 -12880667.73346  20915147.2034   20915142.2384
        48.0004         37.5004
 -25593115.90348 -19925315.15646  20812271.1804   20812265.7544
        51.5004         38.5004
  -1387808.45746   -985865.17242  24829483.3444   24829475.4184
        36.7504         15.5004
 -12945395.56947 -10061774.91345  22932292.0394   22932287.0634
        46.5004         31.5004
 -14848808.37747 -11544585.36845  22102773.9924   22102773.6804
        46.0004         34.5004
 -23075357.73548 -17880679.55346  20562798.0164   20562795.6914
        50.5004         41.7504
  -7021148.21146  -5747768.21644  24265238.6024   24265236.0634
        39.0004         24.0004
 -14014652.92647 -11239210.07345  22634647.9144   22634646.1884
        46.5004         34.0004
 18  7 27  0 12 30.0000000  0 10G13G11G28G07G23G05G09G30G27G08
  -6536718.65446  -5006411.03943  23988740.3204   23988735.7234
        39.2504         21.2504
  -2049687.38245  -2608249.88042  25470475.0784   25470468.7234
        33.0004         15.5004
 -16593767.66948 -12918321.89346  20905951.8054   20905946.3284
        49.2504         36.7504
 -25571103.96448 -19908162.98446  20816459.7974   20816454.4574
        50.7504         37.2504
  -1278938.22546   -901031.14642  24850200.4844   24850193.3594
        36.2504         16.7504
 -12929547.12147 -10049425.47045  22935307.2974   22935303.3014
        47.0004         32.0004
 -14758465.00947 -11474187.93645  22119966.1644   22119964.4614
        46.5004         34.2504
 -23096029.60048 -17896787.49746  20558863.8984   20558862.0514
        51.5004         41.7504
  -6951603.72346  -5693577.73343  24278473.0314   24278469.6684
        39.2504         22.0004
 -14000151.77447 -11227910.44145  22637406.5314   22637405.7154
        45.2504         34.5004
 18  7 27  0 13  0.0000000  0 10G13G11G28G07G23G05G09G30G27G08
  -6639199.52246  -5086266.21843  23969238.5554   23969234.3984
        38.7504         19.5004
  -2129264.89945  -2670258.33942  25455332.0634   25455325.6374
        34.0004         15.5004
 -16641652.83248 -12955635.00346  20896839.2814   20896833.9734
        49.2504         37.5004
 -25548861.56148 -19890831.23246  20820692.3054   20820686.8204
        51.0004         37.2504
  -1169952.28046   -816107.10743  24870940.5004   24870932.8834
        37.7504         18.5004
 -12913155.30847 -10036652.61845  22938427.1564   22938422.1414
        46.2504         31.7504
 -14667815.90447 -11403552.27245  22137216.6884   22137214.3014
        46.0004         34.0004
 -23116450.08848 -17912699.55646  20554977.9224   20554975.9694
        51.0004         41.7504
  -6881599.17946  -5639028.73543  24291794.1804   24291791.8794
        39.0004         22.5004
 -13985058.20247 -11216149.22445  22640278.8754   22640277.6414
        44.7504         34.5004
 18  7 27  0 13 30.0000000  0 10G13G11G28G07G23G05G09G30G27G08
  -6741589.37846  -5166050.50443  23949755.6884   23949748.9384
        39.7504         18.5004
  -2208797.21546  -2732231.55742  25440197.9144   25440190.9924
        37.2504         16.7504
 -16689100.28848 -12992607.03746  20887810.6254   20887804.7624
        49.5004         37.5004
 -25526388.57948 -19873319.80946  20824968.8594   20824963.1604
        50.5004         37.5004
  -1060852.56946   -731094.32643  24891700.6024   24891693.8014
        37.2504         18.2504
 -12896221.13647 -10023457.17445  22941648.9534   22941645.0204
        44.0004         31.2504
 -14576862.56047 -11332679.53545  22154524.5394   22154521.4774
        47.0004         34.2504
 -23136618.82248 -17928415.44847  20551140.0784   20551138.2154
        50.7504         42.5004
  -6811136.77246  -5584122.98243  24305203.3674   24305199.2114
        37.2504         21.5004
 -13969372.42347 -11203926.53345  22643264.2814   22643262.9734
        42.5004         33.5004
 18  7 27  0 14  0.0000000  0 10G13G11G28G07G23G05G09G30G27G08
  -6843886.12446  -5245762.24943  23930288.2584   23930282.8634
        40.0004         21.5004
  -2288281.26946  -2794167.19842  25425072.1484   25425065.6024
        36.2504         15.5004
 -16736109.29948 -13029237.42946  20878864.6024   20878859.1024
        49.5004         36.0004
 -25503684.91048 -19855628.63546  20829289.3754   20829283.7234
        50.5004         38.2504
   -951640.44746   -645993.98442  24912484.1724   24912475.5084
        37.2504         17.7504
 -12878745.87547 -10009840.12344  22944974.6484   22944969.7154
        42.0004         29.5004
 -14485606.75647 -11261571.12045  22171889.7274   22171886.8404
        46.7504         33.5004
 -23156535.60748 -17943935.01347  20547350.1334   20547348.0984
        51.5004         42.5004
  -6740218.86046  -5528862.30943  24318697.8914   24318694.4344
        38.5004         21.5004
 -13953094.65647 -11191242.54845  22646361.0314   22646359.8874
        43.2504         33.5004
 18  7 27  0 14 30.0000000  0 10G13G11G28G07G23G05G09G30G27G08
  -6946088.02446  -5325400.09143  23910840.3204   23910834.3364
        40.5004         19.7504
  -2367715.21945  -2856063.79742  25409955.8834   25409949.6804
        35.7504         15.5004
 -16782680.48348 -13065526.66246  20870002.1724   20869996.7304
        49.5004         36.5004
 -25480751.06748 -19837758.10546  20833653.4614   20833648.4734
        50.7504         38.0004
   -842318.77646   -560808.29142  24933287.4064   24933279.7704
        37.7504         17.2504
 -12860731.15547  -9995802.69545  22948403.2274   22948398.5784
        46.2504         31.0004
 -14394050.64847 -11190228.70245  22189312.6334   22189309.8594
        47.2504         33.5004
 -23176200.71748 -17959258.47847  20543607.9534   20543606.0394
        51.5004         42.0004
  -6668848.29546  -5473248.92243  24332279.7734   24332275.8054
        37.7504         21.5004
 -13936226.04047 -11178098.17745  22649571.4614   22649570.3634
        44.2504         34.0004
 18  7 27  0 15  0.0000000  0 10G13G11G28G07G23G05G09G30G27G08
  -7048192.45346  -5404961.95843  23891410.7344   23891404.9614
        40.0004         21.0004
  -2447095.50345  -2917918.60342  25394851.7814   25394844.2584
        35.5004         16.7504
 -16828812.81548 -13101473.93146  20861223.6024   20861218.2774
        48.7504         36.7504
 -25457586.60448 -19819707.87846  20838061.3594   20838056.6374
        50.5004         38.7504
   -732888.71546   -475538.07942  24954111.1024   24954103.4924
        37.0004         17.7504
 -12842177.62147  -9981345.37345  22951934.2034   22951928.9304
        45.0004         31.5004
 -14302195.43747 -11118653.21545  22206791.8524   22206789.4454
        47.0004         33.2504
 -23195613.29448 -17974385.15547  20539913.9694   20539911.5554
        51.0004         42.2504
  -6597026.81446  -5417284.13043  24345946.5474   24345942.1604
        36.7504         20.5004
 -13918766.31347 -11164493.19945  22652894.3204   22652892.7814
        43.0004         32.5004
 18  7 27  0 15 30.0000000  0 10G13G11G28G07G23G05G09G30G27G08
  -7150197.22346  -5484446.15443  23871999.2274   23871994.6414
        39.2504         19.5004
  -2526418.55446  -2979728.73942  25379756.0234   25379749.9654
        37.5004         16.2504
 -16874505.66548 -13137078.76046  20852528.6484   20852523.1724
        48.5004         36.2504
 -25434190.57448 -19801477.20246  20842514.0864   20842509.1484
        51.0004         39.2504
   -623352.20446   -390184.95142  24974954.5474   24974947.0474
        38.0004         17.2504
 -12823086.78147  -9966469.39745  22955566.5314   22955561.6484
        47.0004         31.7504
 -14210042.76847 -11046845.94045  22224328.0004   22224326.3244
        47.7504         35.0004
 -23214773.12448 -17989314.88047  20536268.1884   20536265.6414
        52.0004         42.0004
  -6524756.83646  -5360969.87943  24359698.1334   24359695.4924
        38.2504         22.0004
 -13900715.86747 -11150427.90945  22656328.9534   22656327.1914
        45.0004         33.5004
 18  7 27  0 16  0.0000000  0 10G13G11G28G07G23G05G09G30G27G08
  -7252099.96146  -5563850.86343  23852608.1484   23852602.8594
        40.0004         22.0004
  -2605681.31345  -3041491.93842  25364672.0164   25364666.3874
        35.7504         16.2504
 -16919758.37248 -13172340.62746  20843917.2344   20843912.0124
        48.2504         36.0004
 -25410562.93248 -19783066.06346  20847009.9844   20847005.7074
        50.7504         39.2504
   -513710.60446   -304749.94542  24995819.3674   24995811.0234
        37.5004         17.7504
 -12803459.50647  -9951175.43145  22959301.5784   22959296.6564
        46.0004         31.0004
 -14117593.87047 -10974807.86645  22241920.5164   22241918.7504
        47.2504         34.7504
 -23233679.40848 -18004047.04447  20532670.2034   20532667.4264
        52.0004         42.5004
  -6452040.00446  -5304307.47743  24373536.2734   24373533.1564
        38.0004         21.7504
 -13882074.28747 -11135901.99345  22659875.9924   22659874.8054
        45.0004         33.5004
 18  7 27  0 16 30.0000000  0 10G13G11G28G07G23G05G09G30G27G08
  -7353898.95146  -5643174.69143  23833235.3984   23833231.2664
        39.5004         21.2504
  -2684881.36946  -3103206.19042  25349601.4774   25349595.3284
        36.2504         17.2504
 -16964571.16948 -13207259.69146  20835389.7734   20835384.4304
        48.5004         36.2504
 -25386704.11748 -19764474.77746  20851550.1174   20851545.9264
        51.0004         39.2504
   -403966.24246   -219234.78842  25016702.0394   25016694.5984
        38.0004         16.7504
 -12783297.40347  -9935464.70645  22963137.9384   22963133.3594
        45.2504         30.7504
 -14024851.03047 -10902540.73245  22259568.8444   22259566.9384
        47.5004         35.0004
 -23252332.43048 -18018581.86247  20529120.5084   20529118.6294
        51.5004         42.5004
  -6378879.43446  -5247299.25743  24387458.4224   24387455.2504
        39.0004         22.7504
 -13862842.95647 -11120916.54845  22663535.5944   22663533.9964
        45.0004         33.7504
 18  7 27  0 17  0.0000000  0 10G13G11G28G07G23G05G09G30G27G08
  -7455592.31046  -5722416.24743  23813884.3524   23813879.3984
        40.2504         21.5004
  -2764015.66946  -3164869.34542  25334542.8134   25334536.8204
        36.0004         17.2504
 -17008943.41547 -13241835.46446  20826946.1644   20826940.7734
        47.5004         36.5004
 -25362613.87148 -19745703.16146  20856134.4694   20856130.1484
        51.7504         39.7504
   -294121.10146   -133641.19942  25037605.9384   25037597.6764
        37.0004         17.7504
 -12762601.72947  -9919338.21345  22967076.2034   22967071.6684
        45.5004         30.5004
 -13931816.02947 -10830045.93945  22277273.3524   22277270.2774
        47.7504         34.5004
 -23270731.96348 -18032919.15947  20525619.4224   20525616.8754
        51.5004         42.2504
  -6305277.51246  -5189947.11443  24401465.1094   24401461.3714
        39.5004         22.7504
 -13843022.29347 -11105471.86745  22667307.5474   22667305.7154
        45.5004         34.0004
 18  7 27  0 17 30.0000000  0 10G13G11G28G07G23G05G09G30G27G08
  -7557177.99446  -5801573.91243  23794554.5784   23794548.1134
        40.5004         21.2504
  -2843081.64845  -3226479.16842  25319497.8444   25319490.4184
        34.7504         17.2504
 -17052876.38847 -13276068.93946  20818585.3984   20818580.0904
        47.0004         37.2504
 -25338292.57948 -19726751.51346  20860762.5004   20860758.6024
        51.5004         39.2504
   -184177.45646    -47970.84742  25058526.4534   25058519.3164
        36.5004         17.2504
 -12741374.49747  -9902797.53245  22971115.6804   22971111.4224
        45.5004         31.0004
 -13838490.93147 -10757325.08245  22295032.1954   22295029.1414
        47.5004         34.5004
 -23288878.07848 -18047058.98647  20522166.5164   20522164.0354
        51.5004         42.5004
  -6231236.80946  -5132253.07543  24415554.5704   24415551.1724
        39.0004         22.2504
 -13822613.19847 -11089568.67445  22671191.0474   22671189.9064
        46.7504         33.5004
 18  7 27  0 18  0.0000000  0 10G13G11G28G07G23G05G09G30G27G08
  -7658653.29746  -5880645.55843  23775243.6644   23775237.9924
        40.0004         21.2504
  -2922075.81745  -3288033.04642  25304465.4454   25304458.9494
        34.0004         16.7504
 -17096368.36348 -13309958.78346  20810310.3754   20810303.9884
        48.2504         36.2504
 -25313739.32448 -19707619.10946  20865435.1484   20865430.5314
        51.0004         39.2504
    -74136.56346     37775.34342  25079467.6644   25079459.8094
        36.5004         15.5004
 -12719616.26147  -9885843.06045  22975256.3524   22975251.6764
        46.2504         30.0004
 -13744876.90947 -10684379.08745  22312846.0234   22312843.4494
        47.0004         33.7504
 -23306769.92548 -18061000.68946  20518761.6564   20518759.0704
        51.2504         41.7504
  -6156759.35846  -5074218.67843  24429727.4144   24429724.7504
        38.5004         22.5004
 -13801615.17947 -11073206.58845  22675187.0944   22675185.2814
        46.2504         33.0004
 18  7 27  0 18 30.0000000  0 10G13G11G28G07G23G05G09G30G27G08
  -7760016.32446  -5959629.73943  23755954.8364   23755949.0904
        40.5004         21.5004
  -3000995.71445  -3349529.08842  25289446.3284   25289440.9384
        35.2504         17.7504
 -17139419.69948 -13343505.27346  20802117.8754   20802112.2734
        48.2504         36.7504
 -25288954.36848 -19688306.16646  20870151.3054   20870146.6684
        51.0004         39.2504
     35999.54546    123595.72442  25100425.0864   25100417.5594
        36.5004         14.7504
 -12697328.69047  -9868476.12045  22979497.1884   22979492.9694
        46.5004         30.0004
 -13650975.82147 -10611209.40945  22330715.0474   22330711.8674
        47.0004         33.5004
 -23324407.34048 -18074744.13547  20515405.8134   20515402.9734
        51.7504         42.0004
  -6081847.62446  -5015845.94743  24443981.6954   24443979.1724
        37.7504         22.2504
 -13780029.10447 -11056386.25445  22679295.0474   22679292.6254
        47.0004         33.0004
 18  7 27  0 19  0.0000000  0 10G13G11G28G07G23G05G09G30G27G08
  -7861264.64446  -6038524.50643  23736687.7894   23736681.6174
        40.0004         21.2504
  -3079837.68845  -3410964.41242  25274444.9534   25274437.3524
        35.2504         16.7504
 -17182030.04447 -13376708.12646  20794008.9774   20794003.3134
        47.5004         36.7504
 -25263937.54448 -19668812.54346  20874911.8364   20874907.3674
        49.0004         39.2504
    146229.31545    209489.09442  25121401.4064   25121394.6054
        34.0004         12.5004
 -12674513.07747  -9850697.71645  22983839.1174   22983834.9454
        43.0004         30.7504
 -13556789.22347 -10537817.25845  22348637.5944   22348635.3094
        46.5004         33.5004
 -23341789.88948 -18088288.98447  20512098.0864   20512095.3284
        52.2504         42.5004
  -6006503.70446  -4957136.42343  24458319.0234   24458316.9144
        38.7504         21.7504
 -13757855.49447 -11039108.11945  22683514.1804   22683512.4224
        44.5004         32.7504
 18  7 27  0 19 30.0000000  0 10G13G11G28G07G23G05G09G30G27G08
  -7962396.13246  -6117328.25343  23717443.3364   23717436.8404
        39.5004         21.5004
  -3158599.49646  -3472337.26542  25259455.5394   25259449.8674
        36.0004         16.7504
 -17224199.42247 -13409567.38146  20785984.0394   20785978.6024
        47.5004         36.7504
 -25238688.61648 -19649138.04446  20879716.6804   20879712.4184
        51.2504         38.5004
    256550.469 5                  25142393.742
        30.750
 -12651171.09447  -9832509.16645  22988280.5004   22988276.0084
        45.7504         30.7504
 -13462319.33747 -10464204.37545  22366614.5704   22366612.3014
        46.2504         33.5004
 -23358917.63848 -18101635.27647  20508838.5864   20508836.0204
        52.5004         42.7504
  -5930730.53846  -4898092.44143  24472738.7274   24472736.0314
        38.7504         22.5004
 -13735095.12147 -11021372.75745  22687845.6174   22687844.0004
        45.7504         33.0004
 18  7 27  0 20  0.0000000  0 10G13G11G28G07G23G05G09G30G27G08
  -8063406.31347  -6196037.47343  23698221.6174   23698216.1054
        42.0004         22.0004
  -3237275.34345  -3533643.07742  25244484.9304   25244478.5394
        34.5004         16.7504
 -17265924.92647 -13442080.75546  20778044.3674   20778038.5664
        47.7504         36.7504
 -25213204.79448 -19629280.52046  20884565.9924   20884561.2664
        50.5004         38.5004
                                  25163406.102
        26.250
 -12627301.74647  -9813909.68145  22992823.6414   22992818.6094
        46.5004         31.2504
 -13367565.36247 -10390370.11645  22384646.1254   22384644.5864
        47.0004         34.2504
 -23375787.75148 -18114780.81347  20505628.3984   20505625.7544
        52.0004         42.7504
  -5854527.95246  -4838713.80843  24487239.6884   24487236.1254
        39.7504         22.7504
 -13711745.96447 -11003178.60445  22692288.9694   22692287.1294
        47.0004         33.5004
 18  7 27  0 20 30.0000000  0  9G13G11G28G07G05G09G30G27G08
  -8164297.46346  -6274653.90743  23679022.9774   23679017.1994
        40.7504         22.5004
  -3315866.74145  -3594883.12543  25229529.3054   25229523.1524
        35.7504         19.0004
 -17307210.68148 -13474251.46846  20770187.5164   20770182.1454
        48.0004         37.0004
 -25187490.46648 -19609243.38046  20889458.9844   20889454.4104
        50.7504         38.2504
 -12602910.82947  -9794903.77445  22997464.2194   22997460.1684
        45.7504         30.0004
 -13272533.38848 -10316319.23345  22402730.3524   22402728.2624
        48.0004         33.7504
 -23392404.24848 -18127728.71547  20502466.3364   20502463.3674
        52.5004         42.2504
  -5777902.82146  -4779005.92943  24501819.3674   24501817.8364
        37.7504         21.0004
 -13687813.18547 -10984529.69245  22696843.1884   22696841.3134
        46.5004         33.2504
 18  7 27  0 21  0.0000000  0  9G13G11G28G07G05G09G30G27G08
  -8265065.90346  -6353174.75943  23659846.7664   23659841.4924
        40.7504         22.7504
  -3394369.51246  -3656054.09242  25214590.4064   25214584.6134
        36.0004         16.7504
 -17348055.40648 -13506078.52146  20762415.4454   20762409.8244
        48.5004         37.7504
 -25161544.69748 -19589025.91346  20894396.7194   20894391.6024
        50.0004         37.7504
 -12577998.16847  -9775491.32045  23002205.0164   23002200.3134
        45.7504         31.0004
 -13177223.91148 -10242052.11745  22420867.0634   22420865.3054
        48.0004         35.0004
 -23408765.58148 -18140477.80647  20499352.7734   20499349.8164
        52.2504         42.7504
  -5700856.18646  -4718969.58543  24516481.4224   24516478.3484
        37.0004         19.5004
 -13663295.87147 -10965425.26245  22701508.5004   22701506.2154
        45.5004         33.2504
 18  7 27  0 21 30.0000000  0  9G13G11G28G07G05G09G30G27G08
  -8365708.65746  -6431597.67843  23640695.5554   23640690.2934
        39.2504         22.7504
  -3472779.08545  -3717152.52042  25199669.7034   25199661.7854
        34.5004         16.2504
 -17388458.21348 -13537561.21646  20754727.0314   20754721.7234
        48.5004         38.0004
 -25135365.79048 -19568626.76046  20899378.5554   20899373.4804
        48.5004         38.2504
 -12552565.10747  -9755673.35945  23007045.1564   23007039.9184
        46.2504         30.0004
 -13081637.79647 -10167569.44045  22439056.4924   22439054.2814
        47.2504         33.5004
 -23424870.48848 -18153027.07247  20496287.9924   20496284.9384
        52.2504         42.5004
  -5623389.67246  -4658606.07443  24531224.8204   24531220.0164
        38.0004         20.2504
 -13638194.01347 -10945865.36845  22706285.5474   22706282.9694
        43.7504         33.0004
 18  7 27  0 22  0.0000000  0 10G13G11G17G28G07G05G09G30G27G08
  -8466225.93146  -6509922.81143  23621567.5864   23621562.1914
        39.0004         21.5004
  -3551096.16145  -3778178.81842  25184765.7424   25184759.4454
        34.0004         16.2504
    445651.52915                  25460164.656
        34.500
 -17428421.62848 -13568701.53546  20747122.5394   20747116.9844
        48.7504         38.0004
 -25108956.56948 -19548048.13646  20904403.6484   20904398.6764
        50.5004         38.7504
 -12526615.40547  -9735452.82045  23011982.6334   23011978.0394
        46.2504         30.5004
 -12985779.50448 -10092874.66745  22457297.5864   22457295.1484
        48.0004         33.0004
 -23440721.41748 -18165378.43647  20493271.4064   20493269.0704
        51.7504         42.0004
  -5545508.47746  -4597919.45743  24546043.8284   24546040.7584
        37.7504         21.0004
 -13612510.84347 -10925852.49845  22711172.8914   22711170.6804
        44.2504         32.5004
 18  7 27  0 22 30.0000000  0 10G13G11G17G28G07G05G09G30G27G08
  -8566611.02046  -6588144.95443  23602464.5634   23602458.6684
        39.7504         21.7504
  -3629312.65446  -3839126.72142  25169882.0084   25169875.5394
        36.0004         16.2504
    342192.880 5                  25440477.961
        35.500
 -17467940.89548 -13599495.76546  20739602.1484   20739596.4264
        49.2504         38.5004
 -25082312.01348 -19527286.12946  20909474.2584   20909469.1334
        50.7504         39.0004
 -12500146.07147  -9714827.38345  23017019.7974   23017015.6954
        45.5004         30.2504
 -12889646.18148 -10017965.58245  22475591.5164   22475589.1724
        48.0004         33.2504
 -23456313.28048 -18177527.94047  20490304.3984   20490302.1334
        52.0004         42.2504
  -5467210.21746  -4536907.82043  24560943.8204   24560940.5984
        37.7504         20.2504
 -13586242.52947 -10905383.67445  22716170.9384   22716169.4844
        46.0004         32.0004
 18  7 27  0 23  0.0000000  0 10G13G11G17G28G07G05G09G30G27G08
  -8666863.63946  -6666263.87543  23583387.0634   23583381.4574
        39.5004         21.2504
  -3707427.78046  -3899995.61942  25155017.2344   25155010.6054
        36.5004         15.5004
    238614.658 5                  25420767.281
        34.500
 -17507018.16648 -13629945.58446  20732165.6804   20732159.8874
        49.0004         38.0004
 -25055434.20548 -19506342.37646  20914588.9614   20914583.9534
        51.0004         39.2504
 -12473160.99047  -9693800.04745  23022154.7504   23022150.4774
        46.5004         31.5004
 -12793241.84647  -9942845.32045  22493936.6094   22493933.9384
        47.5004         33.7504
 -23471648.03248 -18189477.09547  20487386.1094   20487384.1804
        51.5004         42.2504
  -5388499.83846  -4475575.10543  24575922.5164   24575918.4264
        37.2504         19.2504
 -13559391.85247 -10884461.06145  22721280.5394   22721278.6524
        45.7504         32.5004
 18  7 27  0 23 30.0000000  0 10G13G11G17G28G07G05G09G30G27G08
  -8766981.50346  -6744277.77743  23564335.7974   23564329.7304
        41.5004         21.0004
  -3785438.32246  -3960783.01142  25140172.2114   25140165.5354
        36.2504         16.2504
    134919.73145    122200.42152  25401035.3364   25401030.6484
        34.5004         16.7504
 -17545652.97148 -13660050.62346  20724813.9384   20724808.0474
        49.0004         38.5004
 -25028322.79148 -19485216.58946  20919748.0554   20919743.2154
        50.7504         39.0004
 -12445661.50647  -9672371.88545  23027388.1414   23027383.4104
        46.0004         31.7504
 -12696568.06847  -9867515.11145  22512332.7114   22512331.0234
        47.7504         33.5004
 -23486725.12748 -18201225.48746  20484517.2734   20484514.9694
        51.5004         41.5004
  -5309379.47546  -4413922.81042  24590978.7344   24590974.1484
        36.0004         17.2504
 -13531959.45947 -10863085.16245  22726500.8594   22726499.1454
        44.7504         32.7504
 18  7 27  0 24  0.0000000  0 10G13G11G17G28G07G05G09G30G27G08
  -8866963.00646  -6822185.40743  23545309.4614   23545304.6094
        40.5004         20.2504
  -3863341.45845  -4021486.76042  25125347.8204   25125341.1804
        35.7504         15.5004
     31110.84345     41310.44142  25381281.2584   25381274.9104
        33.2504         16.7504
 -17583845.78748 -13689811.27046  20717545.8674   20717540.6094
        48.7504         38.0004
 -25000978.20348 -19463909.12746  20924951.5554   20924946.7234
        49.5004         39.7504
 -12417649.33447  -9650544.23045  23032718.4304   23032714.2504
        46.0004         31.7504
 -12599627.10847  -9791976.71245  22530780.0634   22530778.1804
        47.0004         33.7504
 -23501544.71548 -18212773.22446  20481696.8444   20481694.7774
        51.2504         41.7504
  -5229852.03946  -4351953.43543  24606112.1644   24606108.6604
        36.5004         19.0004
 -13503946.69747 -10841257.02645  22731831.6564   22731829.3324
        43.5004         31.2504
 18  7 27  0 24 30.0000000  0 10G13G11G17G28G07G05G09G30G27G08
  -8966805.70146  -6899984.87243  23526309.7034   23526304.9104
        41.5004         23.0004
  -3941134.52745  -4082104.73842  25110544.2734   25110537.4884
        35.5004         16.2504
    -72810.17645    -39667.01742  25361505.9384   25361499.7344
        35.2504         16.2504
 -17621596.78248 -13719227.62346  20710362.2664   20710357.0784
        49.2504         37.7504
 -24973400.32448 -19442419.88946  20930199.3204   20930194.5314
        49.2504         39.7504
 -12389126.47147  -9628318.62245  23038146.0394   23038141.4694
        45.0004         31.5004
 -12502421.00147  -9716231.71145  22549277.7814   22549276.0554
        46.7504         33.2504
 -23516106.60748 -18224120.14946  20478925.7664   20478923.5784
        51.5004         41.2504
  -5149920.35046  -4289669.00542  24621322.2974   24621319.0824
        36.0004         16.7504
 -13475354.37647 -10818977.29345  22737272.6484   22737270.0274
        43.2504         31.7504
 18  7 27  0 25  0.0000000  0 10G13G11G17G28G07G05G09G30G27G08
  -9066506.94847  -6977674.14343  23507337.6254   23507332.6334
        42.2504         22.5004
  -4018814.03146  -4142634.21842  25095762.7504   25095755.3954
        37.0004         14.7504
   -176840.45846   -120729.55342  25341709.8914   25341703.3364
        37.7504         16.7504
 -17658905.31348 -13748299.19746  20703262.6174   20703257.3324
        49.0004         37.7504
 -24945588.65048 -19420748.44546  20935491.3914   20935487.1454
        50.0004         39.2504
 -12360093.77147  -9605695.75045  23043671.0084   23043666.3794
        45.7504         32.0004
 -12404951.12647  -9640281.17245  22567825.7344   22567823.3954
        47.0004         32.5004
 -23530410.05048 -18235265.68346  20476203.6804   20476201.6214
        51.0004         41.5004
  -5069586.51446  -4227071.27542  24636609.3054   24636606.1884
        36.0004         14.7504
 -13446182.38947 -10796245.86545  22742823.6804   22742821.5354
        46.0004         32.5004
 18  7 27  0 25 30.0000000  0 10G13G11G17G28G07G05G09G30G27G08
  -9166064.46747  -7055251.41043  23488392.6334   23488387.6054
        42.5004         22.2504
  -4096377.20445  -4203073.07242  25081002.6024   25080995.8204
        35.7504         16.2504
   -280978.25346   -201875.87342  25321892.6024   25321886.0394
        36.7504         17.2504
 -17695771.91348 -13777026.41546  20696246.9064   20696242.1414
        49.0004         38.5004
 -24917543.14248 -19398894.82146  20940828.1804   20940824.3134
        50.0004         39.5004
 -12330553.84647  -9582677.63245  23049291.9844   23049288.0554
        45.7504         32.2504
 -12307219.49147  -9564126.66145  22586423.1024   22586420.6684
        46.0004         31.7504
 -23544454.91448 -18246209.73446  20473531.5314   20473528.7194
        51.7504         41.5004
  -4988853.09946  -4164162.10942  24651972.8204   24651968.9534
        36.0004         15.5004
 -13416432.84347 -10773064.39545  22748485.3754   22748483.2344
        45.7504         32.2504
 18  7 27  0 26  0.0000000  0 10G13G11G17G28G07G05G09G30G27G08
  -9265478.81647  -7132717.13343  23469474.2734   23469469.2464
        42.2504         22.2504
  -4173823.48646  -4263420.83242  25066264.3284   25066259.0784
        36.5004         16.7504
   -385223.55046   -283105.95443  25302055.4924   25302049.4654
        38.7504         19.7504
 -17732199.03648 -13805411.18746  20689315.6484   20689310.0314
        48.5004         38.0004
 -24889265.92948 -19376860.63446  20946209.1484   20946205.2034
        48.0004         39.7504
 -12300510.71847  -9559267.42145  23055009.5394   23055005.4304
        43.0004         31.5004
 -12209230.46947  -9487771.58245  22605069.7274   22605067.2154
        46.0004         32.2504
 -23558243.40548 -18256954.01047  20470908.0004   20470905.3754
        51.5004         42.2504
  -4907725.29645  -4100945.65642  24667409.7424   24667407.2114
        35.2504         15.5004
 -13386108.76447 -10749435.23445  22754255.3674   22754253.7814
        45.2504         32.2504
 18  7 27  0 26 30.0000000  0 10G13G11G17G28G07G05G09G30G27G08
  -9364742.34346  -7210065.30643  23450585.3834   23450580.1764
        41.7504         21.7504
  -4251144.52345  -4323670.92942  25051550.8914   25051544.4494
        35.5004         14.7504
   -489568.25146   -364413.43543  25282199.9924   25282193.5864
        38.2504         19.0004
 -17768181.00148 -13833449.07946  20682467.7974   20682462.7424
        49.0004         37.5004
 -24860751.60547 -19354641.69946  20951635.0864   20951630.8634
        47.5004         39.0004
 -12269960.32247  -9535461.92945  23060823.1254   23060818.4534
        43.5004         31.0004
 -12110980.57347  -9411213.21245  22623766.1804   22623763.6484
        46.2504         32.5004
 -23571769.78248 -18267494.02647  20468333.3914   20468331.2464
        52.5004         42.5004
  -4826200.32445  -4037419.71742  24682923.9454   24682920.1524
        34.0004         16.2504
 -13355205.58747 -10725354.84045  22760136.4224   22760133.8914
        45.5004         32.2504
 18  7 27  0 27  0.0000000  0 10G13G11G17G28G07G05G09G30G27G08
  -9463855.57247  -7287296.36743  23431724.9924   23431719.0554
        42.5004         21.2504
  -4328340.18146  -4383823.40242  25036861.5864   25036855.2344
        37.2504         15.5004
   -594013.02846   -445799.02943  25262324.2344   25262318.5204
        37.0004         19.7504
 -17803720.99048 -13861142.57446  20675704.8834   20675699.4304
        48.5004         37.5004
 -24832003.06248 -19332240.26946  20957105.7734   20957101.0354
        48.2504         38.7504
 -12238907.55247  -9511264.97145  23066732.4614   23066728.0394
        46.0004         31.7504
 -12012474.54147  -9334455.27745  22642511.5234   22642509.2734
        46.7504         32.7504
 -23585036.67448 -18277831.85647  20465809.1484   20465806.8364
        52.5004         42.7504
  -4744283.47745  -3973588.43242  24698511.9924   24698508.6454
        34.2504         15.5004
 -13323726.83647 -10700825.94045  22766126.2344   22766124.2304
        45.2504         32.5004
 18  7 27  0 27 30.0000000  0 10G13G11G17G28G07G05G09G30G27G08
  -9562815.83547  -7364408.26443  23412893.2664   23412887.5044
        42.2504         22.0004
  -4405407.53746  -4443875.85142  25022195.3674   25022189.7114
        36.5004         13.7504
   -698555.12846   -527260.37643  25242430.1414   25242424.6564
        38.7504         19.0004
 -17838819.08348 -13888491.75246  20669026.0314   20669020.3014
        48.5004         38.0004
 -24803020.09748 -19309656.14646  20962621.5474   20962616.9964
        49.0004         39.0004
 -12207354.20747  -9486677.95045  23072736.8524   23072732.5474
        46.7504         31.5004
 -11913714.18747  -9257499.18145  22661304.8444   22661302.4964
        47.2504         32.7504
 -23598043.66248 -18287967.17047  20463333.7734   20463331.3524
        52.5004         43.0004
  -4661977.41845  -3909453.85042  24714174.9844   24714171.3014
        34.0004         14.7504
 -13291673.41747 -10675849.24745  22772225.5164   22772223.8284
        45.0004         31.5004
 18  7 27  0 28  0.0000000  0 10G13G11G17G28G07G05G09G30G27G08
  -9661620.57747  -7441398.96743  23394091.2034   23394085.4734
        42.5004         22.5004
  -4482343.33946  -4503825.88842  25007555.9694   25007548.6954
        36.2504         14.7504
   -803191.83146   -608795.46843  25222518.5864   25222513.0594
        37.5004         19.0004
 -17873474.87047 -13915496.25746  20662431.3134   20662425.4844
        47.5004         37.7504
 -24773801.76948 -19286888.62546  20968181.5164   20968176.6174
        50.0004         38.5004
 -12175301.62347  -9461701.92145  23078835.9064   23078831.8674
        46.2504         31.5004
 -11814701.01147  -9180346.06945  22680146.7734   22680144.1564
        47.0004         33.2504
 -23610790.05848 -18297899.42047  20460908.7424   20460906.1454
        52.7504         43.2504
  -4579284.291 5                  24729910.086
        32.000
 -13259046.30547 -10650425.52645  22778434.4304   22778431.8914
        46.5004         31.7504
 18  7 27  0 28 30.0000000  0 10G13G11G17G28G07G05G09G30G27G08
  -9760267.96147  -7518267.06443  23375319.3204   23375313.9224
        42.7504         23.0004
  -4559144.26446  -4563670.73642  24992941.3134   24992934.6604
        36.0004         17.2504
   -907921.16446   -690402.70643  25202589.3754   25202584.2074
        39.7504         20.7504
 -17907688.85147 -13942156.50346  20655920.4384   20655914.2304
        47.7504         37.0004
 -24744348.48348 -19263938.00046  20973786.3984   20973781.3134
        50.5004         38.0004
 -12142752.06047  -9436338.62545  23085029.8204   23085025.9494
        46.0004         31.5004
 -11715437.36947  -9102997.77945  22699035.7584   22699033.0664
        47.7504         32.2504
 -23623276.01948 -18307628.73547  20458532.6804   20458530.3714
        52.0004         43.0004
  -4496207.346 5                  24745718.906
        31.000
 -13225847.03947 -10624555.96145  22784752.5164   22784749.8834
        46.2504         33.0004
 18  7 27  0 29  0.0000000  0 10G13G11G17G28G07G05G09G30G27G08
  -9858755.67947  -7595010.71043  23356577.5634   23356572.2704
        42.2504         22.7504
  -4635807.57146  -4623408.41942  24978352.6804   24978346.1024
        37.2504         16.7504
  -1012740.67146   -772080.26343  25182643.1094   25182638.0744
        41.0004         21.5004
 -17941460.94448 -13968472.42546  20649494.3054   20649487.7814
        49.0004         37.7504
 -24714660.08248 -19240804.15946  20979436.0004   20979430.7464
        49.7504         38.0004
 -12109707.11847  -9410589.30545  23091317.9224   23091313.7504
        46.5004         31.5004
 -11615924.81047  -9025455.52345  22717972.6484   22717969.2114
        47.5004         31.0004
 -23635500.79948 -18317154.54547  20456206.1414   20456203.8404
        52.0004         42.7504
                                  24761602.047
        29.750
 -13192075.95647 -10598240.82445  22791178.2734   22791176.4654
        47.0004         31.7504
 18  7 27  0 29 30.0000000  0  9G13G11G17G28G07G05G09G30G08
  -9957081.26247  -7671628.03943  23337866.9534   23337861.4534
        42.0004         22.5004
  -4712330.58146  -4683036.62842  24963791.1334   24963784.3364
        37.2504         17.2504
  -1117647.72146   -853826.01343  25162679.9844   25162674.8204
        40.7504         20.5004
 -17974791.67948 -13994444.41246  20643151.4534   20643145.3594
        48.5004         37.5004
 -24684736.79548 -19217487.30946  20985129.9534   20985125.0434
        49.5004         38.2504
 -12076169.05247  -9384455.76545  23097700.5084   23097695.4454
        46.7504         31.2504
 -11516165.70247  -8947721.15745  22736956.4384   22736952.3984
        47.5004         31.5004
 -23647464.53748 -18326476.93647  20453929.8834   20453927.5634
        51.5004         43.0004
 -13157734.71147 -10571481.41445  22797713.9694   22797711.4844
        46.0004         31.5004
 18  7 27  0 30  0.0000000  0  9G13G11G17G28G07G05G09G30G08
 -10055242.32947  -7748117.14844  23319187.5784   23319182.5594
        42.2504         24.5004
  -4788709.86646  -4742552.94542  24949255.6414   24949248.9964
        36.7504         16.2504
  -1222639.74346   -935637.94243  25142700.3914   25142694.6604
        40.0004         20.0004
 -18007680.86848 -14020072.34346  20636892.8134   20636886.9574
        48.5004         37.5004
 -24654577.49748 -19193986.54446  20990869.3754   20990864.6414
        50.5004         38.5004
 -12042139.40947  -9357939.15945  23104175.7274   23104171.0434
        46.2504         31.7504
 -11416161.64647  -8869795.92345  22755986.4694   22755982.5984
        47.5004         31.5004
 -23659166.64748 -18335595.47147  20451702.8984   20451700.4414
        51.5004         42.7504
 -13122823.87347 -10544278.15145  22804357.1254   22804354.8594
        45.5004         32.7504
 18  7 27  0 30 30.0000000  0  9G13G11G17G28G07G05G09G30G08
 -10153236.73747  -7824476.40344  23300539.6254   23300534.2814
        42.7504         24.0004
  -4864942.25246  -4801954.84642  24934749.2194   24934742.6094
        37.2504         17.2504
  -1327714.33346  -1017514.30243  25122704.7734   25122699.7894
        41.0004         18.2504
 -18040128.77048 -14045356.42246  20630718.0084   20630712.7114
        48.0004         38.0004
 -24624182.67748 -19170302.26246  20996653.3594   20996648.4654
        49.5004         39.0004
 -12007620.03347  -9331040.94545  23110744.8054   23110739.8754
        46.5004         31.0004
 -11315914.63747  -8791681.36745  22775062.7584   22775059.2274
        47.5004         31.5004
 -23670606.82048 -18344509.89147  20449525.8524   20449523.0944
        52.5004         42.2504
 -13087344.89247 -10516632.19645  22811108.5394   22811106.4574
        47.0004         32.2504
 18  7 27  0 31  0.0000000  0  9G13G11G17G28G07G05G09G30G08
 -10251062.12947  -7900703.97943  23281924.1724   23281918.2734
        42.2504         23.0004
  -4941024.95946  -4861240.04042  24920270.8834   24920265.0984
        36.7504         14.7504
  -1432869.37946  -1099453.28343  25102695.0864   25102688.7774
        39.7504         18.2504
 -18072135.89147 -14070297.04846  20624627.3444   20624622.1214
        47.2504         37.7504
 -24593552.21648 -19146434.38646  21002481.5314   21002477.4614
        49.2504         39.0004
 -11972612.93547  -9303762.68245  23117406.1884   23117402.0634
        46.5004         30.2504
 -11215426.64047  -8713379.04545  22794185.0784   22794181.2584
        47.0004         31.5004
 -23681784.81348 -18353220.00647  20447398.3984   20447396.3714
        51.0004         42.2504
 -13051298.89747 -10488544.39845  22817967.6094   22817965.5234
        46.5004         33.0004
 18  7 27  0 31 30.0000000  0  9G13G11G17G28G07G05G09G30G08
 -10348715.83447  -7976797.74543  23263340.6094   23263335.7234
        43.0004         23.5004
  -5016954.58846  -4920405.96042  24905822.5394   24905816.5474
        37.7504         16.2504
  -1538101.12046  -1181452.10243  25082671.2274   25082663.6454
        40.2504         18.5004
 -18103701.63347 -14094893.73646  20618620.5944   20618615.5634
        47.2504         37.7504
 -24562685.26048 -19122382.22046  21008355.5394   21008351.8714
        49.0004         39.0004
 -11937119.70147  -9276105.63345  23124160.4384   23124156.0634
        46.2504         30.2504
 -11114699.10447  -8634890.07045  22813352.4844   22813349.4614
        47.5004         32.0004
 -23692699.81548 -18361725.19947  20445321.8204   20445318.8954
        51.7504         43.2504
 -13014686.61747 -10460015.35045  22824934.6254   22824933.3984
        47.0004         32.5004
 18  7 27  0 32  0.0000000  0  9G13G11G17G28G07G05G09G30G08
 -10446196.16147  -8052756.47543  23244791.4534   23244785.1764
        43.5004         22.7504
  -5092729.10546  -4979451.05042  24891402.6094   24891397.4384
        37.5004         17.7504
  -1643408.32246  -1263509.68243  25062631.6724   25062625.6954
        40.5004         19.2504
 -18134827.12447 -14119147.37346  20612697.3054   20612692.1454
        47.0004         37.7504
 -24531582.80848 -19098146.55446  21014273.7584   21014270.9694
        48.2504         39.2504
 -11901143.03647  -9248071.86045  23131006.1334   23131001.8954
        43.7504         30.5004
 -11013735.03147  -8556216.76645  22832565.4144   22832562.6884
        47.0004         31.5004
 -23703352.47948 -18370025.95347  20443294.2734   20443291.9414
        52.0004         42.2504
 -12977510.39847 -10431046.87545  22832009.4534   22832007.3284
        44.7504         33.2504
 18  7 27  0 32 30.0000000  0  9G13G11G17G28G07G05G09G30G08
 -10543499.96247  -8128577.60043  23226274.6024   23226268.8984
        43.0004         22.0004
  -5168344.74446  -5038372.34042  24877013.6724   24877007.6954
        38.7504         17.7504
  -1748787.59246  -1345623.36743  25042577.8984   25042572.1174
        41.5004         20.7504
 -18165512.06147 -14143057.71746  20606858.3674   20606852.6914
        46.5004         37.7504
 -24500243.72947 -19073726.50846  21020237.3914   21020234.2034
        47.0004         39.0004
 -11864684.09147  -9219662.28345  23137944.3204   23137940.0164
        46.0004         30.7504
 -10912535.44747  -8477359.94345  22851823.5004   22851819.6764
        47.2504         31.2504
 -23713741.55748 -18378121.33247  20441317.4224   20441315.0664
        51.7504         42.2504
 -12939770.15747 -10401638.89745  22839191.2504   22839189.3634
        47.2504         33.2504
 18  7 27  0 33  0.0000000  0  9G13G11G17G28G07G05G09G30G08
 -10640625.07047  -8204259.47043  23207792.8524   23207787.3794
        43.7504         23.0004
  -5243798.34646  -5097167.35642  24862655.4774   24862648.7274
        39.0004         16.2504
  -1854237.09746  -1427791.84743  25022511.9694   25022505.8634
        41.7504         21.2504
 -18195756.67047 -14166624.93946  20601103.1804   20601097.4884
        47.0004         37.5004
 -24468668.12547 -19049122.16246  21026245.7664   21026242.8554
        46.7504         38.7504
 -11827745.42247  -9190878.90245  23144973.7194   23144969.4614
        45.5004         31.0004
 -10811102.66647  -8398321.42445  22871125.6174   22871121.6954
        46.5004         30.5004
 -23723867.10348 -18386011.36747  20439390.3444   20439388.0704
        51.5004         42.0004
 -12901467.45947 -10371792.63445  22846479.7814   22846477.4924
        46.5004         32.5004
 18  7 27  0 33 30.0000000  0  9G13G11G17G28G07G05G09G30G08
 -10737569.24047  -8279800.37143  23189344.9304   23189338.9064
        43.7504         22.7504
  -5319086.89346  -5155833.79442  24848329.5164   24848322.4304
        38.2504         16.7504
  -1959754.01346  -1510012.82043  25002432.3284   25002426.6054
        40.5004         21.5004
 -18225561.31747 -14189849.33946  20595431.2974   20595425.5904
        46.0004         37.0004
 -24436855.84547 -19024333.38246  21032299.3914   21032296.6844
        47.0004         39.0004
 -11790328.55447  -9161722.89645  23152093.8204   23152089.6954
        43.5004         30.0004
 -10709438.56547  -8319102.63145  22890470.8984   22890467.5634
        46.2504         30.2504
 -23733728.69648 -18393695.71547  20437513.6724   20437511.7194
        51.7504         42.0004
 -12862603.74947 -10341509.23145  22853875.3524   22853872.8794
        44.2504         31.5004
 18  7 27  0 34  0.0000000  0  9G13G11G17G28G07G05G09G30G08
 -10834329.49447  -8355197.96044  23170932.2344   23170926.6334
        43.2504         24.5004
  -5394207.28246  -5214369.14142  24834033.5554   24834027.0164
        37.7504         16.7504
  -2065335.34346  -1592283.96443  24982340.2194   24982335.5354
        39.0004         20.7504
 -18254925.95947 -14212730.88346  20589843.4774   20589837.4614
        45.0004         37.0004
 -24404806.19648 -18999359.63746  21038398.9224   21038395.3484
        48.0004         39.5004
 -11752435.30647  -9132195.69145  23159304.5474   23159300.5434
        46.2504         30.0004
 -10607544.63047  -8239704.75745  22909860.6884   22909858.0204
        46.5004         30.5004
 -23743325.55748 -18401173.80147  20435687.1804   20435685.3054
        51.7504         42.0004
 -12823179.96447 -10310789.39545  22861377.0634   22861374.4734
        46.0004         31.5004
 18  7 27  0 34 30.0000000  0  9G13G11G17G28G07G05G09G30G08
 -10930903.46947  -8430450.37244  23152554.2894   23152548.7774
        43.2504         24.5004
  -5469156.32446  -5272770.97242  24819770.5004   24819764.4104
        36.7504         13.7504
  -2170978.49146  -1674603.28643  24962236.8594   24962232.3954
        37.5004         20.2504
 -18283850.78347 -14235269.71546  20584339.1414   20584333.3754
        46.0004         36.5004
 -24372519.11948 -18974200.88746  21044543.0314   21044539.3834
        49.0004         39.7504
 -11714067.75547  -9102298.90445  23166605.5864   23166601.6724
        46.2504         31.0004
 -10505422.77847  -8160129.28345  22929294.2424   22929292.3524
        46.2504         31.2504
 -23752657.25548 -18408445.24646  20433911.7344   20433909.7154
        51.0004         41.5004
 -12783197.07947 -10279633.90145  22868985.9064   22868982.5514
        46.5004         31.0004
 18  7 27  0 35  0.0000000  0  9G13G11G17G28G07G05G09G30G08
 -11027289.31447  -8505556.21943  23134212.7894   23134206.6884
        43.7504         22.5004
  -5543931.41846  -5331037.33242  24805542.0554   24805536.0084
        37.7504         17.2504
  -2276681.29546  -1756969.07043  24942121.5164   24942117.5044
        36.7504         19.0004
 -18312336.46747 -14257466.35846  20578918.4844   20578912.3634
        44.5004         36.0004
 -24339994.70248 -18948857.18946  21050732.1884   21050728.3204
        49.5004         39.2504
 -11675228.51047  -9072034.54845  23173997.0164   23173992.5864
        46.0004         30.5004
 -10403075.51747  -8080378.17245  22948770.6334   22948768.5164
        46.2504         32.2504
 -23761723.94948 -18415510.21246  20432186.5084   20432184.8284
        51.5004         41.7504
 -12742656.89847 -10248044.15345  22876700.1484   22876697.7274
        45.2504         31.7504
 18  7 27  0 35 30.0000000  0  9G13G11G17G28G07G05G09G30G08
 -11123484.89047  -8580513.81143  23115907.0314   23115901.5434
        42.5004         23.5004
  -5618529.65646  -5389165.82342  24791346.2114   24791339.6024
        37.5004         16.7504
  -2382441.39946  -1839379.56043  24921996.3594   24921991.8204
        37.0004         18.2504
 -18340383.74947 -14279321.38646  20573581.3834   20573575.9064
        45.5004         36.5004
 -24307233.17648 -18923328.74046  21056966.6564   21056962.8594
        49.5004         39.7504
 -11635919.64047  -9041404.25445  23181477.0164   23181472.2034
        47.0004         31.0004
 -10300505.10347  -8000453.17545  22968289.0474   22968287.4614
        45.7504         31.5004
 -23770525.57748 -18422368.62147  20430511.2584   20430509.1484
        51.2504         42.0004
 -12701560.94947 -10216021.31445  22884520.8134   22884518.1954
        45.5004         32.0004
 18  7 27  0 36  0.0000000  0  9G13G11G17G28G07G05G09G30G08
 -11219487.25746  -8655320.82843  23097638.7424   23097632.6914
        41.5004         22.5004
  -5692947.75846  -5447153.94042  24777185.7894   24777179.4024
        38.7504         16.2504
  -2488256.05946  -1921832.50243  24901860.5864   24901856.1374
        36.5004         18.2504
 -18367992.46647 -14300834.67346  20568327.7344   20568321.9694
        46.5004         36.7504
 -24274233.94848 -18897615.05746  21063246.5554   21063242.3444
        49.7504         39.7504
 -11596142.81547  -9010409.33545  23189045.9614   23189041.3754
        43.5004         30.2504
 -10197713.11247  -7920355.53445  22987849.1804   22987846.9534
        44.2504         30.7504
 -23779061.41448 -18429019.92647  20428887.4924   20428885.2774
        51.0004         42.0004
 -12659910.62647 -10183566.52245  22892446.6564   22892444.2194
        43.5004         31.7504
 18  7 27  0 36 30.0000000  0  9G13G11G17G28G07G05G09G30G08
 -11315293.80547  -8729975.27743  23079406.9844   23079401.9384
        42.5004         23.0004
  -5767182.34446  -5504999.08542  24763058.3914   24763053.3164
        38.0004         17.2504
  -2594122.52546  -2004325.86743  24881714.9614   24881710.5234
        36.2504         19.0004
 -18395162.58047 -14322006.18846  20563157.1484   20563151.6294
        47.0004         37.0004
 -24240996.43448 -18871715.69646  21069571.3594   21069567.0864
        50.0004         39.7504
 -11555900.30547  -8979051.53244  23196703.6724   23196699.4614
        45.5004         29.5004
 -10094701.22947  -7840086.55945  23007451.5944   23007449.7034
        44.7504         30.0004
 -23787330.82348 -18435463.61547  20427313.6884   20427311.5204
        52.0004         42.2504
 -12617706.47447 -10150680.16245  22900477.7194   22900475.2734
        45.5004         31.5004
 18  7 27  0 37  0.0000000  0  9G13G11G17G28G07G05G09G30G08
 -11410902.57847  -8804475.58844  23061213.2114   23061207.9344
        42.2504         24.5004
  -5841230.69746  -5562699.09342  24748968.7194   24748961.7464
        39.0004         16.7504
  -2700038.48546  -2086857.80643  24861559.4694   24861554.8674
        38.2504         19.5004
 -18421894.90547 -14342836.57846  20558070.3444   20558064.1334
        47.5004         36.5004
 -24207521.13748 -18845631.03746  21075941.3284   21075936.8524
        51.2504         39.2504
 -11515194.35047  -8947332.60245  23204449.8754   23204445.1054
        46.5004         30.2504
  -9991471.70047  -7759647.96245  23027095.4614   23027093.5944
        46.0004         31.5004
 -23795333.64948 -18441699.56847  20425790.9064   20425788.2624
        52.0004         42.7504
 -12574950.47147 -10117363.80945  22908613.9534   22908611.8244
        46.0004         31.0004
 18  7 27  0 37 30.0000000  0  9G13G11G17G28G07G05G09G30G08
 -11506310.94447  -8878819.75944  23043058.3754   23043052.7544
        42.5004         24.7504
  -5915090.22546  -5620251.91642  24734912.7194   24734907.6414
        38.5004         17.7504
  -2806001.19046  -2169426.15343  24841395.1804   24841391.1994
        38.2504         20.5004
 -18448189.94747 -14363326.21346  20553066.3984   20553060.4654
        47.5004         36.7504
 -24173807.92048 -18819360.98046  21082356.8754   21082352.0984
        50.2504         38.0004
 -11474027.12347  -8915254.25145  23212283.6564   23212278.9414
        46.0004         30.0004
  -9888026.89347  -7679041.61045  23046780.1954   23046778.7894
        46.2504         31.7504
 -23803069.88448 -18447727.80347  20424318.8134   20424317.0124
        52.5004         42.5004
 -12531644.15447 -10083618.64045  22916854.5084   22916851.7894
        46.2504         30.5004
 18  7 27  0 38  0.0000000  0  9G13G11G17G28G07G05G09G30G08
 -11601516.39947  -8953005.83544  23024940.7734   23024936.1484
        42.0004         24.7504
  -5988757.41246  -5677654.96743  24720894.9774   24720888.5944
        38.5004         18.2504
  -2912007.87346  -2252028.73943  24821224.7274   24821219.7544
        39.0004         20.7504
 -18474048.09147 -14383475.40846  20548145.5634   20548139.7504
        46.5004         37.0004
 -24139856.13348 -18792905.03646  21088817.3914   21088812.2934
        50.0004         38.0004
 -11432400.52547  -8882817.94445  23220205.2584   23220200.5664
        45.5004         31.0004
  -9784368.54247  -7598268.87645  23066506.2974   23066504.2344
        45.7504         32.7504
 -23810538.91948 -18453547.81247  20422897.4304   20422895.0044
        52.7504         42.2504
 -12487789.12547 -10049445.89045  22925200.2114   22925197.8714
        46.0004         32.0004
 18  7 27  0 38 30.0000000  0  9G13G11G17G28G07G05G09G30G08
 -11696516.67146  -9027032.01843  23006862.5084   23006857.3914
        41.2504         23.7504
  -6062229.19846  -5734905.70142  24706912.9534   24706907.3324
        38.2504         17.2504
  -3018056.11246  -2334663.71643  24801043.8524   24801039.1954
        39.2504         20.7504
 -18499469.67347 -14403284.43646  20543308.2504   20543302.7854
        47.5004         37.0004
 -24105665.71348 -18766263.15146  21095323.8524   21095318.9774
        50.0004         37.0004
 -11390317.17547  -8850025.72845  23228213.5944   23228208.6254
        46.0004         30.2504
  -9680498.65647  -7517331.31445  23086271.4384   23086270.2304
        45.5004         32.0004
 -23817740.45848 -18459159.39947  20421527.0394   20421524.5084
        52.0004         42.0004
 -12443386.39947 -10014846.34845  22933649.8754   22933647.1174
        45.2504         30.7504
 18  7 27  0 39  0.0000000  0  9G13G11G17G28G07G05G09G30G08
 -11791308.88846  -9100896.08643  22988824.5864   22988818.8754
        41.5004         23.7504
  -6135502.41246  -5792001.72743  24692970.2664   24692964.6174
        38.0004         18.5004
  -3124142.68546  -2417328.63243  24780855.9304   24780850.8164
        37.7504         19.0004
 -18524454.50447 -14422753.13446  20538553.8524   20538548.4534
        46.7504         38.0004
 -24071236.10948 -18739434.88146  21101875.3444   21101869.9614
        49.5004         37.0004
 -11347778.54647  -8816878.74345  23236308.4774   23236303.9184
        45.0004         30.7504
  -9576418.71047  -7436230.06745  23106077.5634   23106075.7464
        44.0004         32.0004
 -23824673.55648 -18464561.80847  20420207.6884   20420205.3714
        52.2504         42.5004
 -12398436.98147  -9979820.83545  22942203.0164   22942201.3674
        45.2504         31.0004
 18  7 27  0 39 30.0000000  0  9G13G11G17G28G07G05G09G30G08
 -11885891.41246  -9174596.76143  22970825.7664   22970820.8094
        41.5004         22.7504
  -6208574.51646  -5848941.04043  24679065.5554   24679058.5864
        39.5004         18.2504
  -3230266.04746  -2500022.18643  24760661.8204   24760656.5124
        39.7504         20.2504
 -18549004.01247 -14441882.59346  20533882.1804   20533876.9964
        47.0004         37.2504
 -24036568.18448 -18712420.90346  21108472.1174   21108467.4614
        49.0004         36.5004
 -11304787.44947  -8783379.18445  23244488.7274   23244484.9774
        45.2504         31.0004
  -9472131.72147  -7354967.50245  23125922.8444   23125920.8794
        43.7504         31.7504
 -23831338.83348 -18469755.51747  20418939.0634   20418936.7774
        51.5004         42.0004
 -12352943.49747  -9944371.36545  22950859.8754   22950858.2934
        44.2504         30.5004
 18  7 27  0 40  0.0000000  0  9G13G11G17G28G07G05G09G30G08
 -11980260.99046  -9248131.49744  22952868.3444   22952862.8524
        41.7504         25.5004
  -6281441.65846  -5905720.64043  24665200.3834   24665193.1294
        39.0004         19.0004
  -3336422.78846  -2582741.72343  24740460.3364   24740455.1174
        39.7504         20.7504
 -18573117.68247 -14460672.44446  20529293.9534   20529288.2854
        46.2504         37.2504
 -24001660.55848 -18685220.16146  21115114.6414   21115110.3364
        48.5004         36.7504
 -11261345.47647  -8749528.28045  23252755.7274   23252751.5124
        45.2504         30.2504
  -9367638.72747  -7273544.40745  23145807.0234   23145804.7504
        45.0004         31.2504
 -23837734.89648 -18474739.45947  20417722.0554   20417719.6764
        51.7504         42.0004
 -12306906.59047  -9908498.45945  22959620.9144   22959619.5944
        44.5004         30.7504
 18  7 27  0 40 30.0000000  0  9G13G11G17G28G07G05G09G30G08
 -12074415.41346  -9321498.60144  22934951.0554   22934946.5824
        41.5004         25.2504
  -6354101.57946  -5962338.73643  24651372.0554   24651365.9264
        38.0004         18.2504
  -3442610.68846  -2665485.52943  24720253.9774   24720248.8484
        40.5004         20.2504
 -18596796.74947 -14479123.64846  20524787.8754   20524782.2774
        47.0004         38.0004
 -23966513.77148 -18657833.08046  21121802.9064   21121798.6914
        48.2504         37.2504
 -11217455.32147  -8715328.14945  23261107.8834   23261103.7344
        44.5004         31.0004
  -9262942.43347  -7191962.87145  23165730.2344   23165727.6214
        46.0004         30.7504
 -23843862.12748 -18479513.93647  20416556.0634   20416553.7774
        51.2504         42.5004
 -12260328.13947  -9872203.56345  22968484.8594   22968482.7854
        45.5004         30.2504
 18  7 27  0 41  0.0000000  0  9G13G11G17G28G07G05G09G30G08
 -12168352.21046  -9394696.08244  22917075.9144   22917070.4104
        41.5004         26.0004
  -6426550.56846  -6018792.50142  24637585.5084   24637579.4104
        38.0004         17.2504
  -3548827.10046  -2748251.60943  24700041.8364   24700035.8484
        38.7504         20.0004
 -18620041.38147 -14497236.34846  20520364.7734   20520359.0394
        47.0004         37.7504
 -23931127.50648 -18630259.37746  21128536.9144   21128532.6334
        49.5004         38.0004
 -11173119.28347  -8680780.58445  23269544.6334   23269540.1604
        45.7504         30.2504
  -9158044.55047  -7110224.26845  23185691.7504   23185688.7894
        44.5004         30.2504
 -23849719.84148 -18484078.38547  20415441.2814   20415439.0864
        51.5004         43.0004
 -12213209.74147  -9835487.94345  22977450.9384   22977448.2154
        46.5004         31.0004
 18  7 27  0 41 30.0000000  0  9G13G11G17G28G07G05G09G30G08
 -12262068.64846  -9467721.89144  22899241.8594   22899237.3094
        40.7504         25.5004
  -6498786.21146  -6075080.02942  24623838.5164   24623832.4024
        38.0004         16.2504
  -3655069.15146  -2831037.60243  24679824.1954   24679819.1884
        39.5004         20.7504
 -18642851.88247 -14515010.76046  20516023.9304   20516018.2384
        46.7504         37.7504
 -23895501.25348 -18602498.66846  21135316.4614   21135312.2234
        49.7504         38.0004
 -11128339.39047  -8645887.15345  23278065.8594   23278062.0164
        45.7504         31.0004
  -9052946.95947  -7028330.05545  23205691.1884   23205687.8404
        45.0004         30.0004
 -23855307.51048 -18488432.41046  20414378.1254   20414375.9734
        51.0004         41.7504
 -12165552.64747  -9798352.52145  22986518.8524   22986516.4024
        45.2504         30.2504
 18  7 27  0 42  0.0000000  0  9G13G11G17G28G07G05G09G30G08
 -12355562.16846  -9540573.95344  22881450.7504   22881445.6174
        41.2504         26.2504
  -6570805.14646  -6131198.67943  24610134.3284   24610129.4224
        37.5004         18.2504
  -3761333.50146  -2913840.98943  24659602.7424   24659597.9614
        41.0004         21.7504
 -18665228.76647 -14532447.27046  20511765.5004   20511760.0354
        46.0004         37.5004
 -23859634.59248 -18574550.62746  21142141.8834   21142137.5944
        50.5004         38.5004
 -11083117.93547  -8610649.64145  23286671.3284   23286667.4614
        45.7504         30.7504
  -8947651.64547  -6946281.77245  23225728.0944   23225725.7154
        45.0004         30.5004
 -23860624.67948 -18492575.65747  20413366.2504   20413364.1844
        51.5004         42.0004
 -12117358.26747  -9760798.47544  22995691.0084   22995688.1914
        47.0004         29.5004
 18  7 27  0 42 30.0000000  0  9G13G11G17G28G07G05G09G30G08
 -12448830.70446  -9613250.73044  22863702.7504   22863697.4264
        41.2504         25.2504
  -6642604.25946  -6187146.08942  24596471.3524   24596465.4574
        37.2504         17.2504
  -3867618.27546  -2996660.29043  24639377.5314   24639372.2734
        41.0004         22.0004
 -18687172.93747 -14549546.61146  20507589.2114   20507583.7894
        45.5004         37.0004
 -23823527.72948 -18546415.41046  21149013.0234   21149008.5824
        50.5004         39.2504
 -11037457.32247  -8575069.93345  23295360.1884   23295355.8554
        45.0004         30.2504
  -8842161.04047  -6864081.31645  23245802.3754   23245799.7034
        45.2504         30.5004
 -23865671.37748 -18496508.15447  20412406.1414   20412403.6484
        51.7504         43.0004
 -12068628.77347  -9722827.41644  23004963.4304   23004960.2774
        46.0004         29.7504
 18  7 27  0 43  0.0000000  0  9G13G11G17G28G07G05G09G30G08
 -12541871.85146  -9685750.32744  22845997.0864   22845992.0634
        41.2504         25.0004
  -6714180.87746  -6242920.07442  24582850.8204   24582845.1024
        37.0004         16.7504
  -3973921.51346  -3079494.00043  24619148.5634   24619143.4264
        41.5004         23.0004
 -18708684.98547 -14566309.24646  20503495.9384   20503490.3634
        46.5004         37.0004
 -23787181.12248 -18518093.38546  21155929.6954   21155924.9414
        50.7504         39.0004
 -10991360.07747  -8539150.00745  23304132.0554   23304128.5274
        45.2504         30.0004
  -8736477.39747  -6781730.43944  23265913.2894   23265910.3284
        44.7504         29.5004
 -23870447.44048 -18500229.76947  20411497.2424   20411494.5554
        52.0004         42.7504
 -12019365.68347  -9684440.59844  23014337.6174   23014335.0274
        45.7504         29.5004
 18  7 27  0 43 30.0000000  0  9G13G11G17G28G07G05G09G30G08
 -12634682.38446  -9758070.23844  22828335.8054   22828330.3204
        41.5004         25.0004
  -6785531.05246  -6298517.61543  24569273.9774   24569267.6914
        37.5004         18.5004
  -4080239.71546  -3162339.36443  24598916.8984   24598912.4614
        41.7504         22.5004
 -18729764.63347 -14582734.92946  20499484.2424   20499478.9064
        47.5004         37.0004
 -23750593.36948 -18489583.45046  21162892.2114   21162886.8634
        50.7504         39.2504
 -10944827.73447  -8502891.00845  23312987.1954   23312982.6684
        45.7504         31.0004
  -8630601.84247  -6699229.99244  23286060.6174   23286056.9844
        44.5004         29.0004
 -23874951.49348 -18503739.41147  20410640.1564   20410637.9804
        51.5004         42.7504
 -11969570.23247  -9645638.96044  23023813.6484   23023810.8674
        46.2504         28.5004
 18  7 27  0 44  0.0000000  0  9G13G11G17G28G07G05G09G30G08
 -12727260.65646  -9830209.14044  22810719.1094   22810714.0704
        40.7504         25.0004
  -6856652.90846  -6353937.24942  24555739.2114   24555733.7074
        36.7504         17.7504
  -4186570.17946  -3245194.26543  24578682.5704   24578677.6954
        40.5004         22.0004
 -18750413.34647 -14598824.81946  20495555.3914   20495549.5514
        47.0004         37.2504
 -23713765.34448 -18460886.30546  21169900.1484   21169895.3054
        51.0004         38.7504
 -10897863.36147  -8466295.40445  23321924.7194   23321919.5044
        44.5004         31.0004
  -8524537.30047  -6616582.28344  23306243.9534   23306241.3634
        43.0004         28.7504
 -23879184.07548 -18507037.53847  20409834.7734   20409832.2034
        51.0004         43.0004
 -11919244.92547  -9606424.43544  23033390.1644   23033387.7814
        45.7504         29.2504
 18  7 27  0 44 30.0000000  0  9G13G11G17G28G07G05G09G30G08
 -12819603.93646  -9902164.95344  22793146.4924   22793142.3014
        41.2504         27.0004
  -6927542.92046  -6409176.21143  24542249.6174   24542243.3364
        37.7504         18.2504
  -4292910.27646  -3328056.69443  24558446.9064   24558441.3484
        41.0004         22.5004
 -18770631.27847 -14614579.04246  20491707.6484   20491702.6564
        47.7504         37.2504
 -23676696.42048 -18432001.42846  21176954.2584   21176949.4774
        51.0004         38.2504
 -10850469.33347  -8429364.97945  23330942.6024   23330938.3164
        43.7504         30.7504
  -8418285.61047  -6533788.76944  23326462.6024   23326460.9224
        43.0004         29.5004
 -23883144.60348 -18510123.66547  20409081.2584   20409077.9534
        51.2504         42.0004
 -11868390.86747  -9566797.91545  23043067.5164   23043064.9694
        45.5004         30.5004
 18  7 27  0 45  0.0000000  0  9G13G11G17G28G07G05G09G30G08
 -12911709.01847  -9973935.13944  22775620.0084   22775615.6954
        42.5004         26.5004
  -6998197.66046  -6464231.81242  24528805.0084   24528797.7344
        38.2504         16.7504
  -4399256.99846  -3410924.23443  24538209.9614   24538205.2074
        41.0004         21.2504
 -18790418.71147 -14629997.80946  20487942.3444   20487937.4964
        47.7504         37.5004
 -23639385.95148 -18402928.33946  21184053.9534   21184049.1134
        50.5004         38.0004
 -10802647.20847  -8392100.97945  23340043.0164   23340038.9384
        45.0004         31.5004
  -8311848.17447  -6450850.52344  23346717.9614   23346715.2544
        43.5004         29.5004
 -23886832.02648 -18512996.98147  20408379.4454   20408376.5704
        51.7504         42.5004
 -11817009.43347  -9526760.42945  23052844.8834   23052843.4734
        45.2504         30.0004
 18  7 27  0 45 30.0000000  0  9G13G11G17G28G07G05G09G30G08
 -13003574.26047 -10045518.41244  22758138.2734   22758133.8134
        42.0004         28.0004
  -7068614.92446  -6519102.46543  24515404.5004   24515398.3444
        39.2504         18.5004
  -4505608.50146  -3493795.54443  24517971.9304   24517966.6174
        41.0004         22.0004
 -18809777.18447 -14645082.32546  20484258.3594   20484253.5904
        47.5004         37.2504
 -23601834.60348 -18373667.56046  21191199.6174   21191194.5204
        50.2504         37.5004
 -10754400.63247  -8354506.24245  23349224.4694   23349219.9414
        45.7504         31.2504
  -8205228.00946  -6367769.90344  23367007.1484   23367004.4184
        41.0004         28.5004
 -23890246.90748 -18515657.93247  20407729.5234   20407726.8284
        51.5004         42.0004
 -11765103.28147  -9486314.07044  23062722.4454   23062720.8634
        45.5004         29.5004
 18  7 27  0 46  0.0000000  0  9G13G11G17G28G07G05G09G30G08
 -13095196.89247 -10116912.66944  22740702.6024   22740698.7424
        42.2504         28.2504
  -7138791.15146  -6573785.27443  24502049.7974   24502044.0354
        38.2504         18.2504
  -4611961.65146  -3576668.13143  24497732.9844   24497728.7034
        40.2504         22.2504
 -18828706.35947 -14659832.32546  20480656.5394   20480651.4844
        47.0004         37.5004
 -23564041.76248 -18344218.59746  21198391.3134   21198386.4844
        50.5004         37.0004
 -10705731.21447  -8316582.02245  23358485.6024   23358481.8244
        46.0004         31.7504
  -8098426.76047  -6284548.17044  23387330.3364   23387328.0944
        43.2504         28.7504
 -23893388.40748 -18518105.85647  20407131.7504   20407129.0634
        51.2504         42.5004
 -11712673.20647  -9445459.47645  23072699.9304   23072696.8874
        46.0004         30.7504
 18  7 27  0 46 30.0000000  0  9G13G11G17G28G07G05G09G30G08
 -13186573.96947 -10188115.59244  22723314.9534   22723310.5164
        42.5004         29.0004
  -7208723.06546  -6628277.62742  24488742.7344   24488736.5634
        38.0004         17.2504
  -4718313.67546  -3659539.84443  24477495.7504   24477490.2114
        40.5004         20.2504
 -18847206.85547 -14674248.29246  20477135.9454   20477130.5824
        47.0004         38.0004
 -23526006.55748 -18314580.78146  21205628.9384   21205624.1094
        50.0004         36.2504
 -10656641.22247  -8278330.08045  23367826.9224   23367823.3324
        46.2504         31.5004
  -7991446.15647  -6201186.65744  23407689.2114   23407685.9024
        44.5004         28.5004
 -23896255.82648 -18520340.19547  20406586.0084   20406583.4534
        51.0004         42.5004
 -11659721.20247  -9404198.17044  23082776.0944   23082773.5234
        45.7504         29.5004
 18  7 27  0 47  0.0000000  0  9G13G11G17G28G07G05G09G30G08
 -13277703.19247 -10259125.37644  22705973.2424   22705968.7704
        42.0004         28.5004
  -7278408.11146  -6682577.68143  24475482.3984   24475476.3834
        38.7504         18.5004
  -4824662.06546  -3742408.75343  24457257.5164   24457253.1844
        40.2504         21.0004
 -18865279.98647 -14688331.24146  20473696.4534   20473691.5984
        47.2504         37.7504
 -23487729.58148 -18284754.54745  21212912.6334   21212908.0274
        49.5004         35.0004
 -10607133.54647  -8239752.66345  23377248.3834   23377243.9924
        46.2504         31.0004
  -7884288.73347  -6117687.36744  23428079.1724   23428077.8524
        44.5004         27.0004
 -23898849.18848 -18522360.99647  20406092.9064   20406089.9184
        51.0004         42.2504
 -11606249.34547  -9362531.79044  23092950.9844   23092947.8914
        45.0004         28.7504
 18  7 27  0 47 30.0000000  0  9G13G11G17G28G07G05G09G30G08
 -13368582.04347 -10329940.05844  22688679.5784   22688675.2544
        43.0004         28.5004
  -7347843.11246  -6736682.87343  24462269.1414   24462263.0904
        39.7504         20.0004
  -4931003.76046  -3825272.42943  24437021.9144   24437016.8674
        39.7504         20.0004
 -18882925.97547 -14702081.35546  20470338.7424   20470334.2194
        47.0004         37.5004
 -23449210.56848 -18254739.73645  21220242.3914   21220237.2934
        49.2504         35.2504
 -10557210.25447  -8200851.38845  23386748.7504   23386744.2894
        47.2504         31.0004
  -7776956.35147  -6034051.73544  23448503.7664   23448501.8674
        43.7504         28.0004
 -23901167.91548 -18524167.79046  20405651.3834   20405648.2934
        51.5004         41.7504
 -11552259.28447  -9320461.63944  23103224.9144   23103222.2274
        45.2504         28.5004
 18  7 27  0 48  0.0000000  0  9G13G11G17G28G07G05G09G30G08
 -13459208.07947 -10400557.74444  22671434.0634   22671429.5164
        42.5004         28.7504
  -7417025.14646  -6790590.97843  24449104.6254   24449098.5124
        39.7504         18.2504
  -5037336.45746  -3908129.10743  24416787.2894   24416781.9184
        40.2504         20.5004
 -18900145.38547 -14715499.07846  20467062.0944   20467056.9534
        47.7504         38.2504
 -23410449.25748 -18224536.10845  21227618.3444   21227613.6884
        49.5004         34.2504
 -10506873.68447  -8161628.07745  23396327.2034   23396323.3554
        47.2504         30.7504
  -7669451.08047  -5950281.39944  23468960.5004   23468959.4534
        42.0004         27.0004
 -23903211.48548 -18525760.17347  20405262.4384   20405259.4224
        51.7504         42.5004
 -11497752.99247  -9277989.20744  23113597.8594   23113594.9344
        45.5004         29.7504
 18  7 27  0 48 30.0000000  0  9G13G11G17G28G07G05G09G30G08
 -13549578.53947 -10470976.27944  22654237.5164   22654232.9734
        43.0004         28.7504
  -7485951.01446  -6844299.48643  24435988.5234   24435982.0634
        39.0004         19.0004
  -5143657.60146  -3990976.76643  24396554.9924   24396549.6564
        40.0004         21.5004
 -18916939.22747 -14728585.17646  20463865.8914   20463861.3164
        47.7504         37.7504
 -23371445.39248 -18194143.50045  21235041.0314   21235035.3244
        49.5004         34.5004
 -10456126.55047  -8122084.85745  23405983.6024   23405979.6564
        46.2504         31.0004
  -7561775.00747  -5866377.98544  23489451.8674   23489450.2464
        42.0004         28.5004
 -23904979.77648 -18527138.04547  20404926.1804   20404923.1334
        52.2504         42.5004
 -11442731.86147  -9235115.59545  23124068.2274   23124065.2774
        46.2504         30.0004
 18  7 27  0 49  0.0000000  0  9G13G11G17G28G07G05G09G30G08
 -13639691.32646 -10541194.01244  22637088.8594   22637084.6844
        41.5004         28.2504
  -7554618.09546  -6897806.28343  24422921.9924   24422915.3134
        40.0004         19.2504
  -5249964.53546  -4073813.35843  24376325.9774   24376319.8954
        41.2504         21.5004
 -18933308.27347 -14741340.27646  20460750.8054   20460746.0784
        47.0004         38.0004
 -23332199.28748 -18163562.12745  21242509.3834   21242504.1294
        49.0004         35.5004
 -10404971.62547  -8082223.88045  23415718.7344   23415714.1414
        46.2504         31.7504
  -7453930.62647  -5782343.41944  23509973.5314   23509972.1684
        43.7504         27.2504
 -23906472.61848 -18528301.28547  20404642.0004   20404638.9414
        51.5004         43.0004
 -11387198.58147  -9191842.91845  23134635.7034   23134633.6334
        46.0004         30.5004
 18  7 27  0 49 30.0000000  0  9G13G11G17G28G07G05G09G30G08
 -13729543.07647 -10611208.35744  22619991.0004   22619986.1954
        42.7504         27.7504
  -7623022.86746  -6951108.71443  24409904.4924   24409898.4494
        39.7504         18.2504
  -5356253.37246  -4156635.83443  24356100.0004   24356093.8914
        40.5004         21.7504
 -18949252.55547 -14753764.38846  20457716.8674   20457712.1954
        47.5004         38.2504
 -23292709.69048 -18132791.00145  21250023.8674   21250018.1644
        50.5004         35.7504
 -10353410.80547  -8042046.61445  23425530.3054   23425525.6334
        46.2504         30.2504
  -7345919.32447  -5698178.77944  23530528.3134   23530525.3674
        44.7504         29.5004
 -23907688.89948 -18529249.01847  20404410.5084   20404407.9144
        50.0004         43.2504
 -11331154.14147  -9148171.93045  23145300.4694   23145298.3524
        46.0004         30.5004
 18  7 27  0 50  0.0000000  0  9G13G11G17G28G07G05G09G30G08
 -13819131.50946 -10681017.52544  22602943.1954   22602937.8484
        41.5004         27.0004
  -7691162.41546  -7004204.48243  24396937.8754   24396931.7234
        39.5004         19.5004
  -5462522.05746  -4239442.61143  24335877.2344   24335871.9844
        40.0004         21.5004
 -18964773.04247 -14765858.27846  20454763.7424   20454758.5704
        47.0004         38.0004
 -23252976.87248 -18101830.36846  21257584.9774   21257580.6764
        51.0004         36.5004
 -10301446.88347  -8001555.23745  23435418.2034   23435413.4804
        46.0004         31.5004
  -7237743.34447  -5613885.79344  23551113.3284   23551110.9494
        44.2504         28.0004
 -23908628.39248 -18529981.08447  20404231.5634   20404228.7934
        52.0004         42.5004
 -11274600.34847  -9104104.06844  23156062.7114   23156060.0314
        45.5004         29.2504
 18  7 27  0 50 30.0000000  0  9G13G11G17G28G07G05G09G30G08
 -13908454.57047 -10750619.90144  22585945.3834   22585939.4104
        42.5004         26.2504
  -7759033.63146  -7057091.16743  24384022.4144   24384016.1454
        39.2504         19.0004
  -5568768.12846  -4322231.77843  24315659.4304   24315653.8874
        39.0004         21.0004
 -18979870.63447 -14777622.64246  20451890.9924   20451885.7234
        47.2504         38.5004
 -23213000.87848 -18070680.23046  21265192.2034   21265186.6764
        51.0004         36.7504
 -10249082.13247  -7960751.52345  23445383.3524   23445378.6724
        46.0004         30.5004
  -7129404.93347  -5529466.25144  23571728.8834   23571726.3164
        43.0004         26.0004
 -23909290.87048 -18530497.29847  20404105.5234   20404102.8984
        51.5004         42.2504
 -11217539.51647  -9059641.08844  23166920.3834   23166918.0824
        44.7504         28.5004
 18  7 27  0 51  0.0000000  0  9G13G11G17G28G07G05G09G30G08
 -13997509.18647 -10820013.11744  22568998.4694   22568993.0204
        42.2504         26.7504
  -7826633.84946  -7109766.66143  24371158.4144   24371152.3954
        39.5004         19.7504
  -5674988.55446  -4405000.94543  24295446.6414   24295440.4344
        40.2504         19.7504
 -18994546.49647 -14789058.38046  20449098.0234   20449093.2584
        47.7504         38.0004
 -23172781.36848 -18039340.35145  21272845.9614   21272841.2544
        50.5004         35.5004
 -10196319.38847  -7919637.68945  23455423.7894   23455419.2774
        46.0004         31.5004
  -7020906.18947  -5444921.78044  23592374.8754   23592372.5044
        43.0004         27.7504
 -23909675.92148 -18530797.33747  20404031.9144   20404029.5434
        50.7504         42.2504
 -11159973.52447  -9014784.47744  23177874.6724   23177872.4844
        43.5004         28.2504
 18  7 27  0 51 30.0000000  0  9G13G11G17G28G07G05G09G30G08
 -14086292.75947 -10889195.10844  22552103.4224   22552098.4884
        42.5004         27.2504
  -7893959.84646  -7162228.44243  24358347.0234   24358341.6524
        39.5004         20.5004
  -5781180.82446  -4487748.16043  24275238.2424   24275232.2274
        38.0004         19.0004
 -19008800.51947 -14800165.41046  20446385.5704   20446380.3674
        47.2504         38.5004
 -23132318.07048 -18007810.49745  21280545.7734   21280539.8164
        50.5004         35.5004
 -10143160.97547  -7878215.54144  23465539.4694   23465535.0434
        45.7504         29.7504
  -6912249.12347  -5360253.94744  23613050.8914   23613049.1994
        42.7504         25.5004
 -23909783.05148 -18530880.81847  20404011.5944   20404009.4414
        51.0004         42.0004
 -11101904.22947  -8969535.68844  23188924.3674   23188923.0044
        43.0004         29.0004
 18  7 27  0 52  0.0000000  0  9G13G11G17G28G07G05G09G30G08
 -14174802.95747 -10958164.09444  22535260.9454   22535255.4534
        43.0004         26.5004
  -7961008.77246  -7214474.37443  24345587.7894   24345582.3054
        39.7504         19.5004
  -5887342.35446  -4570471.48343  24255036.1094   24255030.3444
        39.2504         20.0004
 -19022633.67847 -14810944.49346  20443753.5234   20443748.4224
        47.5004         38.7504
 -23091610.72748 -17976090.48546  21288291.4534   21288287.3984
        49.2504         36.0004
 -10089609.65447  -7836487.24645  23475729.4694   23475725.8674
        45.7504         31.2504
  -6803435.78547  -5275464.33844  23633758.4144   23633756.3324
        44.2504         26.0004
 -23909611.76748 -18530747.34947  20404044.2584   20404041.8444
        50.0004         42.5004
 -11043333.46047  -8923896.13644  23200070.3674   23200068.3594
        42.7504         29.7504
 18  7 27  0 52 30.0000000  0  9G13G11G17G28G07G05G09G30G08
 -14263037.77947 -11026918.51144  22518470.3674   22518465.1564
        42.2504         28.0004
  -8027778.04146  -7266502.40543  24332881.9224   24332876.3914
        39.7504         20.7504
  -5993470.28646  -4653168.53743  24234841.6254   24234835.2544
        41.5004         20.2504
 -19036047.50547 -14821396.84446  20441201.3444   20441196.0474
        47.7504         39.0004
 -23050659.73648 -17944180.61945  21296084.1094   21296079.7154
        49.2504         34.7504
 -10035668.24347  -7794454.96545  23485994.7734   23485990.0704
        45.2504         30.2504
  -6694469.02547  -5190555.17744  23654493.9844   23654491.7344
        44.5004         27.5004
 -23909162.40048 -18530397.19047  20404129.7424   20404127.1954
        50.5004         42.0004
 -10984263.99347  -8877867.99645  23211311.8524   23211309.6524
        42.7504         30.0004
 18  7 27  0 53  0.0000000  0  9G13G11G17G28G07G05G09G30G08
 -14350993.89946 -11095455.74444  22501732.4614   22501727.4304
        41.2504         28.0004
  -8094264.40546  -7318309.99143  24320230.5784   24320224.3134
        39.2504         19.7504
  -6099561.89447  -4735837.34543  24214652.8834   24214646.5394
        42.7504         21.2504
 -19049042.29048 -14831522.65546  20438728.1954   20438722.7624
        48.0004         38.5004
 -23009464.53948 -17912080.49545  21303923.1804   21303919.5664
        48.7504         35.2504
  -9981338.94247  -7752120.44245  23496333.1334   23496328.7344
        46.5004         31.0004
  -6585350.37947  -5105527.65244  23675258.9304   23675256.4614
        44.0004         28.0004
 -23908434.00248 -18529829.59447  20404268.3984   20404266.2384
        50.7504         42.5004
 -10924697.14747  -8831452.25544  23222646.6254   23222644.2504
        42.5004         29.7504
 18  7 27  0 53 30.0000000  0  9G13G11G17G28G07G05G09G30G08
 -14438669.03047 -11163774.02844  22485048.6094   22485043.1914
        43.2504         27.0004
  -8160464.74246  -7369894.63943  24307632.2974   24307627.2344
        40.7504         20.7504
  -6205614.73547  -4818475.90143  24194471.8444   24194466.0354
        42.2504         21.7504
 -19061618.64247 -14841322.40846  20436334.8364   20436329.7304
        47.2504         39.0004
 -22968025.12648 -17879790.04245  21311808.8054   21311804.3054
        48.5004         35.2504
  -9926624.55647  -7709485.84844  23506744.6724   23506740.4224
        46.0004         29.5004
  -6476081.99347  -5020383.46644  23696052.0234   23696049.9224
        43.0004         27.2504
 -23907426.15148 -18529044.25447  20404460.2664   20404457.6644
        50.2504         42.5004
 -10864634.88847  -8784650.50644  23234076.2424   23234073.6374
        42.2504         29.2504
 18  7 27  0 54  0.0000000  0  9G13G11G17G28G07G05G09G30G08
 -14526060.44147 -11231871.23944  22468418.5394   22468413.1844
        43.2504         27.2504
  -8226376.09646  -7421254.15643  24295090.5554   24295084.3714
        40.5004         20.5004
  -6311625.57547  -4901081.75343  24174298.2114   24174292.0164
        42.7504         20.7504
 -19073777.41847 -14850796.77646  20434021.3754   20434015.9104
        47.5004         39.0004
 -22926340.95448 -17847308.88045  21319741.2814   21319737.4024
        48.7504         35.2504
  -9871527.37547  -7666552.98645  23517229.6644   23517225.0944
        46.5004         30.7504
  -6366665.84147  -4935124.13344  23716873.2974   23716871.2504
        42.7504         26.0004
 -23906138.36148 -18528040.77647  20404705.2424   20404702.5824
        49.7504         43.0004
 -10804079.39447  -8737464.42344  23245599.1334   23245597.0784
        42.2504         29.5004
 18  7 27  0 54 30.0000000  0  9G13G11G17G28G07G05G09G30G08
 -14613165.75047 -11299745.50644  22451843.2584   22451837.5594
        42.7504         28.5004
  -8291995.55546  -7472386.21043  24282603.2584   24282597.5084
        39.2504         21.0004
  -6417591.63246  -4983652.70743  24154132.9694   24154127.5474
        41.7504         20.5004
 -19085519.84247 -14859946.71246  20431786.5704   20431781.6804
        47.0004         38.5004
 -22884412.17648 -17814637.13845  21327720.2424   21327715.5474
        48.5004         35.0004
  -9816050.26847  -7623324.06444  23527786.9924   23527782.4144
        46.2504         29.7504
  -6257104.27446  -4849751.47743  23737721.2344   23737719.4264
        41.7504         23.5004
 -23904570.39948 -18526818.98747  20405003.3834   20405001.1254
        51.0004         42.5004
 -10743032.46546  -8689895.40444  23257216.3054   23257213.6174
        41.5004         28.5004
 18  7 27  0 55  0.0000000  0  9G13G11G17G28G07G05G09G30G08
 -14699982.14747 -11367394.65644  22435322.0634   22435316.7384
        43.5004         28.5004
  -8357320.17746  -7523288.50543  24270172.7274   24270166.7154
        39.5004         20.0004
  -6523510.23047  -5066186.68743  24133978.3054   24133971.0394
        42.7504         19.2504
 -19096846.58147 -14868772.73446  20429631.3674   20429625.7894
        47.0004         39.0004
 -22842238.49048 -17781774.52745  21335745.3444   21335741.4384
        48.0004         35.5004
  -9760195.85847  -7579801.13845  23538415.3674   23538411.0124
        45.0004         30.7504
  -6147399.23547  -4764267.03544  23758598.4224   23758595.1094
        42.5004         25.5004
 -23902721.70448 -18525378.44447  20405355.3204   20405353.1844
        51.0004         42.5004
 -10681496.19547  -8641945.08544  23268926.0234   23268923.2504
        43.0004         29.2504
 18  7 27  0 55 30.0000000  0  9G13G11G17G28G07G05G09G30G08
 -14786506.77847 -11434816.44444  22418857.6174   22418851.5474
        43.7504         27.5004
  -8422346.81846  -7573958.61843  24257798.2504   24257793.5784
        39.7504         20.5004
  -6629378.61646  -5148681.60643  24113832.2894   24113825.2034
        41.5004         19.0004
 -19107758.19547 -14877275.28546  20427554.6954   20427549.2584
        46.5004         38.0004
 -22799819.29948 -17748720.63446  21343817.7734   21343812.3834
        48.7504         36.0004
  -9703966.26547  -7535985.86545  23549115.3444   23549111.1054
        44.7504         30.5004
  -6037552.62647  -4678672.29144  23779501.8834   23779498.4024
        43.5004         24.5004
 -23900591.62648 -18523718.63647  20405760.6174   20405758.5164
        49.2504         42.2504
 -10619472.68347  -8593615.08344  23280728.8984   23280726.1214
        42.7504         28.2504
 18  7 27  0 56  0.0000000  0  9G13G11G17G28G07G05G09G30G08
 -14872737.81147 -11502009.46844  22402448.4924   22402442.1724
        44.0004         28.0004
  -8487073.03246  -7624394.67543  24245481.0784   24245475.9454
        39.0004         19.0004
  -6735194.64646  -5231135.67943  24093695.2504   24093689.7664
        41.7504         20.0004
 -19118256.19647 -14885455.54046  20425556.7584   20425551.5354
        46.5004         38.0004
 -22757155.00348 -17715475.74145  21351936.1644   21351932.6214
        49.0004         35.2504
  -9647365.10547  -7491881.06344  23559886.5864   23559882.3284
        45.5004         29.7504
  -5927567.17247  -4592969.34044  23800431.1804   23800428.5354
        43.0004         26.0004
 -23898180.39548 -18521839.74447  20406219.4844   20406217.3444
        50.2504         43.0004
 -10556964.23847  -8544907.20544  23292624.2664   23292621.1214
        42.5004         28.5004
 18  7 27  0 56 30.0000000  0  9G13G11G17G28G07G05G09G30G08
 -14958671.98447 -11568971.18244  22386095.4534   22386089.1994
        43.7504         28.0004
  -8551495.22646  -7674593.78043  24233222.1564   24233217.0904
        40.0004         21.0004
  -6840954.91646  -5313546.32843  24073570.8054   24073564.5904
        41.5004         20.7504
 -19128340.39847 -14893313.35046  20423637.8134   20423632.8094
        47.0004         38.2504
 -22714245.10348 -17682039.45745  21360101.7974   21360097.5434
        49.2504         35.7504
  -9590394.17047  -7447488.13144  23570727.0704   23570722.9534
        44.7504         29.2504
  -5817444.29947  -4507159.30944  23821386.9774   23821384.3094
        43.0004         26.0004
 -23895486.79248 -18519740.82847  20406732.0704   20406730.1374
        50.0004         43.5004
 -10493972.63147  -8495822.82544  23304611.2114   23304608.6684
        42.5004         29.5004
 18  7 27  0 57  0.0000000  0  9G13G11G17G28G07G05G09G30G08
 -15044306.80847 -11635699.62244  22369800.0474   22369794.2584
        43.0004         29.0004
  -8615610.74846  -7724553.93243  24221021.5084   24221016.8634
        39.0004         20.2504
  -6946656.35846  -5395911.05043  24053455.2584   24053450.9344
        39.0004         21.2504
 -19138012.17147 -14900849.77246  20421797.4304   20421792.2504
        47.0004         38.5004
 -22671089.47748 -17648411.73045  21368314.4534   21368310.6604
        49.7504         35.7504
  -9533056.06047  -7402809.08444  23581638.1954   23581633.7504
        44.5004         28.7504
  -5707186.44546  -4421244.12244  23842368.2344   23842365.8444
        41.7504         25.7504
 -23892510.77548 -18517421.85247  20407298.1724   20407296.5824
        50.2504         43.0004
 -10430500.00947  -8446363.66044  23316689.4144   23316687.2544
        42.7504         29.7504
 18  7 27  0 57 30.0000000  0  9G13G11G17G28G07G05G09G30G08
 -15129640.06747 -11702193.07245  22353561.6414   22353555.6374
        45.5004         30.0004
  -8679416.76346  -7774272.89143  24208880.1094   24208874.8284
        40.2504         21.0004
  -7052297.06246  -5478228.44243  24033353.3594   24033348.2424
        40.0004         22.5004
 -19147272.66047 -14908065.71946  20420035.2194   20420030.1764
        47.5004         38.2504
 -22627688.25548 -17614592.59246  21376573.3284   21376568.1294
        49.0004         36.2504
  -9475354.10347  -7357846.50444  23592618.7814   23592614.8874
        43.5004         29.5004
  -5596796.01046  -4335225.62444  23863374.1094   23863372.7154
        41.5004         26.5004
 -23889252.25448 -18514882.73747  20407918.3754   20407916.3874
        51.0004         43.5004
 -10366548.74447  -8396531.53245  23328858.8754   23328857.2154
        42.0004         30.0004
 18  7 27  0 58  0.0000000  0  9G13G11G17G28G07G05G09G30G08
 -15214668.62047 -11768449.09245  22337381.5004   22337375.0394
        44.5004         30.0004
  -8742909.99446  -7823748.14643  24196797.5234   24196792.0664
        40.2504         21.0004
  -7157873.08046  -5560495.42243  24013262.4304   24013257.6884
        38.7504         22.0004
 -19156122.12847 -14914961.39146  20418351.4774   20418345.9844
        47.2504         38.0004
 -22584040.52748 -17580581.38546  21384879.8134   21384875.2464
        50.0004         37.5004
  -9417290.39147  -7312602.04944  23603667.7584   23603664.1254
        44.5004         27.5004
  -5486274.50646  -4249104.98144  23884406.0004   23884403.3404
        41.5004         25.0004
 -23885710.11148 -18512122.62347  20408592.6804   20408590.2624
        50.5004         43.5004
 -10302120.45847  -8346327.70144  23341118.8594   23341117.4414
        42.5004         29.7504
 18  7 27  0 58 30.0000000  0  9G13G11G17G28G07G05G09G30G08
 -15299390.25847 -11834465.95145  22321259.2814   22321253.6764
        45.0004         31.5004
  -8806087.97446  -7872977.74843  24184775.0554   24184770.7344
        40.0004         21.5004
  -7263382.56446  -5642710.60843  23993184.3594   23993179.3094
        40.2504         23.7504
 -19164562.25847 -14921538.10446  20416745.7114   20416740.2704
        47.2504         39.0004
 -22540146.74348 -17546378.45346  21393232.3914   21393227.0124
        51.0004         37.0004
  -9358867.95947  -7267078.08444  23614785.3984   23614781.5514
        42.5004         27.5004
  -5375624.56747  -4162884.24744  23905462.1724   23905459.2814
        42.0004         25.2504
 -23881884.42748 -18509141.56647  20409320.5314   20409318.6094
        51.0004         43.2504
 -10237217.58247  -8295754.05245  23353469.7344   23353468.2234
        42.2504         30.5004
 18  7 27  0 59  0.0000000  0  9G13G11G17G28G07G05G09G30G08
 -15383802.38847 -11900241.64245  22305196.5394   22305190.5164
        45.0004         30.7504
  -8868947.91046  -7921959.53443  24172812.9064   24172807.6914
        39.5004         20.2504
  -7368822.91846  -5724871.90243  23973119.3914   23973115.1764
        39.7504         22.7504
 -19172594.08347 -14927796.64646  20415216.7114   20415211.7584
        47.0004         38.2504
 -22496006.87648 -17511983.72946  21401631.2974   21401628.5044
        50.5004         37.5004
  -9300089.84447  -7221276.97144  23625970.3054   23625966.3164
        42.7504         26.7504
  -5264848.61347  -4076565.31044  23926542.2344   23926539.9104
        43.0004         26.0004
 -23877775.09848 -18505939.48647  20410102.7734   20410100.7704
        50.5004         43.2504
 -10171842.58947  -8244812.52245  23365910.1484   23365908.4024
        43.7504         30.0004
 18  7 27  0 59 30.0000000  0  9G13G11G17G28G07G05G09G30G08
 -15467902.46347 -11965774.16944  22289192.4534   22289186.6644
        43.7504         29.2504
  -8931486.53146  -7970690.89443  24160911.9614   24160906.7234
        39.5004         21.5004
  -7474191.29746  -5806977.15443  23953068.8364   23953064.5634
        40.7504         22.7504
 -19180217.99247 -14933737.35346  20413766.0704   20413760.6524
        47.5004         38.0004
 -22451620.07348 -17477396.64246  21410078.5634   21410073.0824
        51.0004         37.0004
  -9240958.24547  -7175200.37544  23637222.6484   23637218.5744
        43.0004         28.7504
  -5153948.26047  -3990149.44044  23947646.5554   23947643.5864
        43.2504         25.2504
 -23873381.14148 -18502515.61447  20410938.4534   20410936.4654
        50.7504         43.0004
 -10105997.23447  -8193504.48445  23378440.2584   23378438.8594
        43.7504         30.5004
 18  7 27  1  0  0.0000000  0  9G13G11G17G28G07G05G09G30G08
 -15551687.86947 -12031061.48944  22273248.2814   22273242.5984
        44.5004         29.7504
  -8993700.91546  -8019169.66143  24149073.8594   24149068.0824
        39.2504         19.7504
  -7579484.26646  -5889023.60443  23933032.7814   23933027.4654
        40.5004         22.5004
 -19187435.41047 -14939361.29046  20412392.9304   20412387.4384
        47.5004         38.7504
 -22406986.70148 -17442617.39446  21418571.5554   21418568.2854
        49.0004         37.2504
  -9181476.07447  -7128850.61444  23648541.7974   23648537.5824
        43.0004         28.0004
  -5042925.74547  -3903638.41344  23968772.9064   23968770.4304
        43.5004         27.5004
 -23868702.26848 -18498869.73747  20411829.1024   20411826.7734
        51.5004         43.5004
 -10039683.88947  -8141831.75845  23391059.1884   23391057.0944
        44.5004         30.0004
 18  7 27  1  0 30.0000000  0  9G13G11G17G28G07G05G09G30G08
 -15635155.31947 -12096101.06444  22257365.1564   22257359.1174
        43.7504         29.2504
  -9055587.79646  -8067393.20943  24137297.0164   24137291.3094
        39.7504         22.0004
  -7684699.13446  -5971009.22244  23913010.7274   23913006.5904
        40.5004         24.0004
 -19194246.75247 -14944668.81046  20411096.5314   20411090.9384
        47.2504         37.7504
 -22362106.29148 -17407645.63946  21427112.0234   21427107.1994
        50.5004         37.5004
  -9121645.87347  -7082229.67444  23659926.4924   23659922.6414
        42.5004         27.7504
  -4931782.92147  -3817033.61244  23989922.4144   23989920.5124
        43.2504         26.5004
 -23863737.79548 -18495001.32247  20412774.1254   20412771.4304
        51.0004         43.2504
  -9972904.64247  -8089796.00344  23403766.7734   23403764.5434
        43.5004         29.7504
 18  7 27  1  1  0.0000000  0  9G13G11G17G28G07G05G09G30G08
 -15718302.86847 -12160891.35544  22241542.4144   22241536.3914
        44.2504         28.7504
  -9117144.77346  -8115359.70843  24125582.3984   24125577.0204
        39.0004         20.7504
  -7789833.13346  -6052931.80344  23893004.7034   23892999.8594
        40.5004         26.0004
 -19200652.76747 -14949660.49546  20409877.3054   20409871.7344
        47.5004         37.7504
 -22316978.46848 -17372481.14346  21435700.2274   21435696.3714
        51.0004         37.0004
  -9061470.32647  -7035339.64244  23671378.0784   23671373.7624
        42.7504         25.7504
  -4820522.02547  -3730336.84044  24011094.8754   24011092.5084
        43.0004         26.0004
 -23858487.38948 -18490910.09947  20413773.2194   20413770.3554
        51.5004         43.0004
  -9905661.21847  -8037398.55044  23416562.5784   23416560.4224
        44.0004         27.5004
 18  7 27  1  1 30.0000000  0  9G13G11G17G28G07G05G09G30G08
 -15801128.10247 -12225430.49644  22225781.3444   22225775.8874
        42.7504         29.0004
  -9178369.02446  -8163066.90443  24113932.5864   24113927.1604
        39.0004         20.7504
  -7894883.99246  -6134789.60444  23873013.5004   23873009.3324
        40.5004         24.2504
 -19206655.16248 -14954337.67146  20408735.1094   20408729.5394
        48.0004         37.7504
 -22271603.69448 -17337124.19646  21444334.1954   21444329.0984
        49.5004         37.0004
  -9000952.44546  -6988182.84344  23682893.8834   23682890.2234
        40.0004         26.0004
  -4709145.66147  -3643550.07844  24032289.4844   24032287.4454
        43.7504         26.0004
 -23852951.04348 -18486596.06747  20414826.9304   20414824.5474
        51.0004         43.7504
  -9837956.63647  -7984641.75144  23429446.6884   23429444.1454
        43.0004         28.2504
 18  7 27  1  2  0.0000000  0  9G13G11G17G28G07G05G09G30G08
 -15883627.91147 -12289716.04044  22210082.7114   22210076.6134
        43.2504         29.0004
  -9239257.42946  -8210512.44243  24102344.9774   24102340.3524
        38.2504         20.7504
  -7999848.85846  -6216580.39843  23853040.5474   23853035.0354
        39.2504         20.5004
 -19212254.36347 -14958700.66946  20407669.8524   20407664.1054
        47.0004         38.0004
 -22225981.50648 -17301574.43046  21453015.8754   21453012.5084
        51.5004         37.0004
  -8940094.58846  -6940761.12744  23694474.7814   23694469.7114
        41.2504         25.5004
  -4597655.56347  -3556674.69644  24053504.8674   24053502.8914
        44.2504         27.7504
 -23847127.96448 -18482058.59747  20415934.7734   20415932.6094
        52.2504         43.0004
  -9769792.78547  -7931527.05644  23442417.9844   23442415.3324
        43.7504         27.0004
 18  7 27  1  2 30.0000000  0  9G13G11G17G28G07G05G09G30G08
 -15965800.29947 -12353746.47345  22194445.6024   22194440.0124
        44.2504         30.2504
  -9299807.63946  -8257694.42343  24090822.9064   24090817.9344
        38.7504         21.0004
  -8104725.00246  -6298302.06943  23833082.3834   23833076.9534
        39.2504         21.7504
 -19217452.19847 -14962750.92046  20406680.5944   20406675.2114
        47.0004         38.0004
 -22180112.05648 -17265832.05646  21461745.1644   21461739.7424
        50.0004         37.2504
  -8878900.17246  -6893077.15244  23706119.7734   23706115.0474
        41.2504         24.2504
  -4486054.37147  -3469712.73044  24074742.1334   24074739.6914
        44.2504         26.2504
 -23841018.17048 -18477297.71347  20417097.6644   20417095.1884
        52.5004         44.7504
  -9701172.32547  -7878056.57444  23455476.2974   23455473.4304
        43.7504         28.0004
 18  7 27  1  3  0.0000000  0  9G13G11G17G28G07G05G09G30G08
 -16047642.92547 -12417519.94445  22178871.3984   22178866.0744
        43.0004         30.5004
  -9360016.91146  -8304610.74743  24079365.8444   24079359.9924
        39.0004         20.7504
  -8209509.65446  -6379952.43743  23813143.0314   23813137.9144
        39.7504         21.0004
 -19222249.51747 -14966489.06746  20405767.7974   20405762.2304
        46.2504         38.0004
 -22133995.30648 -17229896.91646  21470520.4304   21470516.9384
        51.0004         38.0004
  -8817372.25347  -6845133.30144  23717828.3204   23717822.8404
        42.0004         24.5004
  -4374344.33947  -3382665.93844  24095999.6564   24095996.8054
        43.5004         26.0004
 -23834621.39548 -18472313.21347  20418314.8284   20418312.5904
        51.5004         44.0004
  -9632097.62447  -7824232.15044  23468620.5164   23468618.1644
        45.2504         28.5004
 18  7 27  1  3 30.0000000  0  9G13G11G17G28G07G05G09G30G08
 -16129152.43747 -12481033.83745  22163360.3914   22163355.0784
        44.0004         30.2504
  -9419882.01146  -8351258.87143  24067972.8204   24067967.5554
        38.7504         20.5004
  -8314199.71046  -6461529.10644  23793222.0004   23793216.4064
        41.2504         25.5004
 -19226646.91447 -14969915.59446  20404930.8134   20404925.4144
        47.2504         37.5004
 -22087630.44248 -17193768.49446  21479343.8204   21479338.2424
        51.2504         37.0004
  -8755512.82647  -6796931.13644  23729599.7734   23729594.4804
        43.0004         25.7504
  -4262527.08447  -3295535.63444  24117278.1954   24117275.0474
        43.2504         26.7504
 -23827936.71048 -18467104.36647  20419586.7734   20419584.9384
        51.5004         43.5004
  -9562570.41847  -7770055.12844  23481850.7424   23481848.8874
        44.5004         28.5004
 18  7 27  1  4  0.0000000  0  9G13G11G17G28G07G05G09G30G08
 -16210326.47347 -12544286.33245  22147913.6484   22147907.9614
        44.5004         30.0004
  -9479400.17446  -8397636.67643  24056647.0004   24056641.7774
        38.7504         20.2504
  -8418792.67347  -6543030.13944  23773318.2274   23773313.2194
        43.5004         26.5004
 -19230645.78847 -14973031.58646  20404169.6094   20404164.5744
        46.7504         37.5004
 -22041017.64448 -17157446.83546  21488213.8834   21488209.0514
        50.5004         36.7504
  -8693325.20047  -6748473.23944  23741433.3914   23741428.3834
        43.0004         25.5004
  -4150605.00847  -3208323.62744  24138576.1024   24138573.1564
        43.2504         25.5004
 -23820963.85348 -18461670.98047  20420913.2504   20420912.2074
        52.0004         44.0004
  -9492593.56147  -7715527.72444  23495167.0084   23495165.4884
        44.5004         29.7504
 18  7 27  1  4 30.0000000  0  9G13G11G17G28G07G05G09G30G08
 -16291162.15847 -12607275.18945  22132530.7194   22132524.9964
        43.7504         30.0004
  -9538568.22546  -8443741.65943  24045387.9774   24045383.1214
        38.2504         21.0004
  -8523285.35247  -6624452.97744  23753433.6174   23753429.5744
        44.2504         29.0004
 -19234246.44947 -14975837.28346  20403484.7194   20403479.0474
        47.2504         37.5004
 -21994156.76248 -17120931.86846  21497131.3674   21497125.1374
        51.0004         36.5004
  -8630811.72347  -6699761.42544  23753329.9224   23753325.0084
        43.2504         25.7504
  -4038579.90247  -3121031.35644  24159893.2814   24159891.4614
        42.5004         26.2504
 -23813702.06448 -18456012.45647  20422295.1644   20422293.6994
        51.0004         43.5004
  -9422168.42047  -7660651.02544  23508568.7424   23508566.9844
        44.2504         29.5004
 18  7 27  1  5  0.0000000  0  9G13G11G17G28G07G05G09G30G08
 -16371657.37247 -12669998.72645  22117213.4694   22117207.7544
        44.2504         30.5004
  -9597383.73746  -8489571.94743  24034196.4774   24034191.0314
        38.7504         21.0004
  -8627675.30447  -6705795.78244  23733569.1334   23733564.6454
        43.7504         28.5004
 -19237450.91247 -14978334.26046  20402874.7114   20402869.4264
        46.7504         37.7504
 -21947047.61448 -17084223.47846  21506095.8364   21506090.5204
        51.2504         36.0004
  -8567975.54847  -6650798.17144  23765287.4774   23765282.7854
        42.5004         25.7504
  -3926454.39447  -3033660.85244  24181230.1334   24181227.9224
        42.2504         26.0004
 -23806151.45248 -18450128.87447  20423732.0004   20423730.4734
        51.2504         44.0004
  -9351298.01947  -7605427.35644  23522054.8524   23522053.0904
        43.7504         28.5004
 18  7 27  1  5 30.0000000  0 10G13G11G17G28G07G15G05G09G30G08
 -16451809.44147 -12732454.89344  22101960.7974   22101955.4304
        43.7504         29.7504
  -9655843.87446  -8535125.31143  24023071.4614   24023065.5204
        39.7504         22.0004
  -8731959.63847  -6787056.29044  23713724.0314   23713720.0434
        42.5004         28.0004
 -19240259.91247 -14980523.08446  20402340.6094   20402334.4064
        46.0004         37.2504
 -21899690.44648 -17047321.77846  21515107.4534   21515101.1994
        50.5004         36.0004
   -164531.92615                  25170545.469
        34.000
  -8504819.52147  -6601585.68044  23777305.3134   23777300.8014
        43.0004         24.5004
  -3814230.64247  -2946213.80844  24202586.1954   24202583.2274
        42.5004         26.0004
 -23798311.54948 -18444019.87947  20425223.9454   20425222.5354
        51.5004         44.0004
  -9279984.42547  -7549858.36344  23535625.6884   23535623.3204
        42.7504         27.7504
 18  7 27  1  6  0.0000000  0 10G13G11G17G28G07G15G05G09G30G08
 -16531615.99447 -12794641.82144  22086773.9144   22086768.5204
        44.7504         29.5004
  -9713946.06246  -8580399.74043  24012015.5314   24012008.8284
        39.7504         22.2504
  -8836136.16347  -6868232.78544  23693900.2974   23693895.7194
        42.5004         26.2504
 -19242674.75347 -14982404.76746  20401880.8834   20401875.2274
        46.2504         37.5004
 -21852084.95448 -17010226.61446  21524166.9534   21524160.6414
        52.2504         36.0004
   -266678.57715                  25151105.727
        35.000
  -8441347.07547  -6552126.63343  23789383.4534   23789379.3244
        42.2504         22.5004
  -3701911.00747  -2858692.04144  24223959.9924   24223956.8674
        42.5004         25.5004
 -23790182.13948 -18437685.28147  20426771.2344   20426769.5204
        51.5004         44.2504
  -9208230.90247  -7493946.54844  23549279.4534   23549277.1334
        44.0004         27.2504
 18  7 27  1  6 30.0000000  0 10G13G11G17G28G07G15G05G09G30G08
 -16611073.77647 -12856556.98545  22071653.4534   22071648.3594
        44.2504         30.2504
  -9771686.71346  -8625392.47543  24001027.7034   24001022.3444
        40.0004         21.5004
  -8940201.18247  -6949322.40644  23674097.1724   23674092.3874
        43.2504         26.0004
 -19244695.82747 -14983979.61246  20401496.4144   20401490.7464
        46.7504         37.5004
 -21804230.39448 -16972937.36846  21533273.0314   21533267.7664
        49.2504         36.2504
   -368662.489 6                  25131698.367
        37.250
  -8377559.72347  -6502422.19743  23801521.9614   23801517.3054
        42.2504         23.7504
  -3589496.85047  -2771096.59643  24245351.8984   24245348.2344
        43.0004         22.7504
 -23781762.03548 -18431124.15847  20428373.6094   20428371.3754
        52.5004         44.0004
  -9136038.58147  -7437692.81844  23563017.7194   23563015.4774
        44.0004         28.5004
 18  7 27  1  7  0.0000000  0 10G13G11G17G28G07G15G05G09G30G08
 -16690180.34547 -12918198.45744  22056600.1414   22056594.5124
        43.7504         28.0004
  -9829063.30446  -8670101.48443  23990109.0394   23990104.4184
        40.5004         22.5004
  -9044151.95346  -7030322.98044  23654315.8674   23654311.2344
        41.2504         24.2504
 -19246324.24747 -14985248.49246  20401186.6334   20401180.9144
        45.2504         38.0004
 -21756126.54248 -16935453.84146  21542426.6954   21542421.6214
        51.0004         36.0004
   -470481.59046   -279819.57753  25112322.7194   25112317.4024
        38.5004         19.2504
  -8313460.08647  -6452474.41343  23813719.2504   23813714.6054
        42.5004         22.7504
  -3476990.38747  -2683429.22443  24266760.1024   24266757.1994
        42.2504         22.5004
 -23773050.87148 -18424336.24947  20430031.3134   20430029.2034
        52.2504         44.2504
  -9063409.74347  -7381098.93244  23576839.0704   23576836.2504
        44.7504         29.2504
 18  7 27  1  7 30.0000000  0 10G13G11G17G28G07G15G05G09G30G08
 -16768932.86947 -12979564.06844  22041613.9064   22041608.0904
        43.7504         29.2504
  -9886072.96346  -8714524.60043  23979260.7734   23979255.2274
        40.5004         22.0004
  -9147985.37146  -7111232.11843  23634556.4454   23634551.3674
        41.2504         22.7504
 -19247561.34047 -14986212.44146  20400951.0864   20400945.7234
        43.7504         37.5004
 -21707773.33348 -16897776.05846  21551628.2974   21551623.0274
        51.0004         36.2504
   -572133.18546   -359028.60843  25092979.8204   25092973.7424
        37.2504         19.2504
  -8249051.52647  -6402285.90844  23825976.1024   23825971.2274
        43.0004         24.5004
  -3364393.82346  -2595691.64743  24288186.7344   24288183.5904
        41.0004         22.7504
 -23764048.24548 -18417321.21647  20431744.6564   20431742.3134
        52.5004         43.7504
  -8990346.91047  -7324166.87944  23590741.9774   23590739.7424
        44.7504         29.5004
 18  7 27  1  8  0.0000000  0 10G13G11G17G28G07G15G05G09G30G08
 -16847329.02647 -13040651.97544  22026695.4774   22026690.2774
        44.5004         29.5004
  -9942713.02946  -8758659.72743  23968482.7894   23968476.9574
        41.0004         22.2504
  -9251698.96146  -7192047.88343  23614820.4384   23614815.6564
        41.7504         22.2504
 -19248408.03547 -14986872.19346  20400789.4304   20400784.2774
        45.2504         38.5004
 -21659171.05448 -16859904.15746  21560876.7344   21560871.3554
        50.2504         36.2504
   -673615.14746   -438105.48043  25073666.7424   25073662.3014
        36.5004         19.5004
  -8184337.47447  -6351859.38244  23838291.2584   23838285.6524
        42.5004         25.0004
  -3251709.38046  -2507885.59143  24309629.3914   24309626.3204
        41.2504         22.7504
 -23754753.82848 -18410078.82047  20433513.2504   20433510.6174
        52.5004         43.7504
  -8916852.34747  -7266898.41144  23604727.3284   23604725.4144
        43.2504         29.0004
 18  7 27  1  8 30.0000000  0 10G13G11G17G28G07G15G05G09G30G08
 -16925366.61647 -13101460.48644  22011845.5554   22011840.1374
        45.0004         28.5004
  -9998981.03546  -8802504.93143  23957774.8674   23957769.3284
        40.7504         22.5004
  -9355290.38447  -7272768.45643  23595109.1174   23595102.2344
        43.2504         21.7504
 -19248865.88647 -14987228.94846  20400702.7664   20400697.2704
        46.2504         37.5004
 -21610319.29348 -16821837.86746  21570173.0864   21570168.4414
        51.0004         36.7504
   -774925.31445   -517048.39942  25054387.5704   25054382.4494
        34.7504         16.7504
  -8119320.26047  -6301196.62943  23850663.6334   23850657.9884
        42.5004         22.7504
  -3138939.48746  -2420012.92543  24331090.1954   24331086.2894
        41.5004         22.7504
 -23745167.50948 -18402608.96947  20435337.2034   20435334.6684
        52.2504         43.5004
  -8842929.11647  -7209295.92344  23618794.6334   23618793.1684
        42.5004         27.7504
 18  7 27  1  9  0.0000000  0 10G13G11G17G28G07G15G05G09G30G08
 -17003042.61847 -13161987.24144  21997064.5634   21997059.0004
        44.7504         29.2504
 -10054873.95346  -8846057.83943  23947138.9454   23947133.5434
        40.0004         22.2504
  -9458756.36747  -7353391.33844  23575420.0634   23575413.1884
        46.0004         24.5004
 -19248935.70047 -14987283.33746  20400689.4224   20400683.9304
        46.0004         37.7504
 -21561218.20948 -16783577.30246  21579516.6884   21579511.2344
        50.7504         36.0004
   -876060.81346   -595855.43943  25035144.3364   25035138.3164
        39.5004         19.0004
  -8054002.76047  -6250299.86643  23863092.9614   23863087.1414
        42.0004         22.5004
  -3026086.21646  -2332075.33044  24352565.1254   24352561.6134
        41.2504         25.2504
 -23735288.61748 -18394911.13947  20437217.3984   20437214.2664
        52.2504         42.7504
  -8768579.03147  -7151360.82844  23632941.8594   23632940.4614
        42.0004         27.0004
 18  7 27  1  9 30.0000000  0 10G13G11G17G28G07G15G05G09G30G08
 -17080354.67747 -13222230.40644  21982352.3914   21982346.4774
        45.5004         29.2504
 -10110389.19446  -8889316.48643  23936573.6414   23936569.0004
        39.2504         21.2504
  -9562094.44547  -7433914.59144  23555755.4224   23555747.9694
        46.5004         24.5004
 -19248618.90747 -14987036.47646  20400749.8204   20400744.2544
        45.0004         37.5004
 -21511867.58148 -16745122.28346  21588907.7584   21588902.7114
        50.2504         36.0004
   -977019.72146   -674524.73043  25015931.7814   25015926.4344
        37.5004         19.0004
  -7988388.30447  -6199171.70743  23875579.2274   23875573.5594
        42.5004         23.7504
  -2913151.93447  -2244074.59844  24374055.8054   24374052.5984
        42.5004         24.0004
 -23725117.12648 -18386985.30147  20439152.5314   20439149.8014
        52.5004         43.0004
  -8693805.07046  -7093095.46644  23647171.7734   23647169.8754
        41.5004         27.7504
 18  7 27  1 10  0.0000000  0 10G13G11G17G28G07G15G05G09G30G08
 -17157300.31947 -13282188.05844  21967710.1414   21967704.5984
        45.5004         29.7504
 -10165524.32346  -8932278.93643  23926081.9384   23926076.9414
        39.5004         21.2504
  -9665301.86047  -7514336.00644  23536115.4064   23536110.3054
        46.2504         26.5004
 -19247916.49347 -14986489.13446  20400883.0314   20400877.9064
        43.0004         37.0004
 -21462267.47648 -16706472.87646  21598346.7034   21598341.1254
        51.0004         37.0004
  -1077799.25546   -753054.15543  24996753.8674   24996748.8914
        36.7504         19.5004
  -7922479.82247  -6147814.44644  23888120.9304   23888115.9224
        42.2504         24.0004
  -2800138.70846  -2156012.34044  24395561.9384   24395559.0704
        41.5004         24.0004
 -23714652.40148 -18378830.98547  20441144.1254   20441141.0594
        52.5004         43.0004
  -8618609.37146  -7034501.42344  23661481.1254   23661478.7194
        41.0004         28.0004
 18  7 27  1 10 30.0000000  0 10G13G11G17G28G07G15G05G09G30G08
 -17233876.71847 -13341857.97345  21953138.3134   21953132.6054
        45.5004         30.0004
 -10220276.04446  -8974942.59543  23915663.4064   23915659.0044
        39.2504         21.7504
  -9768375.49247  -7594653.13344  23516500.6564   23516496.0944
        44.5004         27.5004
 -19246829.57547 -14985642.17146  20401089.7504   20401084.4304
        45.2504         36.7504
 -21412417.30148 -16667628.61546  21607832.7584   21607827.8484
        51.0004         36.7504
  -1178396.51146   -831441.66743  24977610.9384   24977605.7814
        39.7504         19.7504
  -7856279.69847  -6096229.91643  23900718.6334   23900714.1564
        42.5004         22.5004
  -2687048.35946  -2067890.00643  24417081.0394   24417079.0554
        40.2504         22.0004
 -23703893.66748 -18370447.56547  20443191.3914   20443188.6054
        52.0004         42.7504
  -8542994.21146  -6975580.55444  23675870.1804   23675868.4384
        41.0004         28.0004
 18  7 27  1 11  0.0000000  0 10G13G11G17G28G07G15G05G09G30G08
 -17310081.42547 -13401238.25444  21938637.0314   21938631.4884
        45.5004         29.0004
 -10274642.26946  -9017305.90443  23905318.0474   23905313.1804
        38.5004         21.2504
  -9871313.04647  -7674864.18844  23496912.5004   23496907.7424
        43.5004         28.0004
 -19245359.62547 -14984496.75446  20401369.8054   20401363.8794
        44.7504         36.2504
 -21362317.46848 -16628589.78946  21617366.3364   21617361.6024
        50.7504         36.5004
  -1278809.79446   -909685.77943  24958502.9774   24958498.0864
        37.5004         19.0004
  -7789791.15147  -6044420.65843  23913370.8134   23913366.3324
        43.0004         22.5004
  -2573883.42446  -1979709.53643  24438615.4694   24438613.5864
        39.0004         22.0004
 -23692840.99548 -18361835.09647  20445294.6094   20445291.6214
        52.5004         43.2504
  -8466962.28447  -6916334.92244  23690339.4844   23690337.3554
        42.5004         27.7504
 18  7 27  1 11 30.0000000  0 10G13G11G17G28G07G15G05G09G30G08
 -17385911.64447 -13460326.72645  21924207.0944   21924201.4884
        47.2504         31.0004
 -10328619.52246  -9059366.11643  23895046.5314   23895041.3714
        40.0004         21.2504
  -9974110.87647  -7754966.36844  23477351.1254   23477346.5784
        43.5004         28.2504
 -19243507.19847 -14983053.30246  20401721.9064   20401716.4924
        44.5004         36.2504
 -21311967.30348 -16589355.91346  21626948.2034   21626942.6724
        52.0004         37.2504
  -1379036.10446   -987784.21543  24939431.3134   24939425.5664
        39.0004         20.0004
  -7723016.55847  -5992388.50544  23926076.9924   23926073.4964
        42.5004         24.0004
  -2460645.64046  -1891472.34443  24460164.5864   24460160.9264
        38.7504         21.5004
 -23681493.48048 -18352992.88547  20447454.3914   20447451.1484
        53.0004         43.0004
  -8390515.64847  -6856766.14544  23704886.3754   23704883.7234
        42.0004         28.5004
 18  7 27  1 12  0.0000000  0 10G13G11G17G28G07G15G05G09G30G08
 -17461364.92147 -13519121.48345  21909849.2814   21909843.1454
        46.0004         31.0004
 -10382205.39546  -9101121.35543  23884849.6954   23884844.6254
        39.7504         21.7504
 -10076766.75647  -7834957.94644  23457816.3284   23457811.2974
        43.7504         27.7504
 -19241273.61547 -14981312.83946  20402146.7734   20402141.5434
        44.0004         36.5004
 -21261366.94748 -16549927.09146  21636577.0784   21636571.9654
        50.5004         37.5004
  -1479073.08546  -1065735.13543  24920393.9304   24920389.1804
        38.7504         18.2504
  -7655958.99147  -5940135.88044  23938838.1804   23938833.9414
        42.5004         24.5004
  -2347337.32846  -1803180.13543  24481726.3984   24481722.0744
        39.7504         21.2504
 -23669850.87848 -18343920.73247  20449669.5634   20449666.6724
        52.7504         42.7504
  -8313656.69447  -6796876.06744  23719512.8054   23719510.8484
        42.5004         27.7504
 18  7 27  1 12 30.0000000  0 10G13G11G17G28G07G15G05G09G30G08
 -17536439.16247 -13577620.88745  21895562.7974   21895556.9184
        46.5004         30.7504
 -10435397.78346  -9142569.94043  23874726.5474   23874722.2424
        39.2504         22.0004
 -10179277.81447  -7914836.66644  23438307.9384   23438304.0164
        42.2504         26.5004
 -19238660.39047 -14979276.54945  20402644.0944   20402638.6604
        43.7504         35.7504
 -21210516.60448 -16510303.46246  21646253.4144   21646248.5514
        51.5004         37.7504
  -1578918.72946  -1143536.91743  24901394.1804   24901389.5554
        39.5004         21.5004
  -7588621.93146  -5887665.46043  23951651.7274   23951647.9304
        41.7504         22.7504
  -2233961.11146  -1714835.02643  24503300.8674   24503297.5514
        40.2504         22.2504
 -23657913.16148 -18334618.62947  20451941.3524   20451938.1174
        52.7504         43.2504
  -8236388.67246  -6736667.26244  23734214.8984   23734212.8524
        41.5004         28.0004
 18  7 27  1 13  0.0000000  0 10G13G11G17G28G07G15G05G09G30G08
 -17611131.11147 -13635822.38844  21881349.2894   21881343.6334
        46.5004         29.7504
 -10488193.29746  -9183709.34143  23864680.9924   23864676.1134
        40.2504         22.0004
 -10281640.95146  -7994600.11644  23418828.3524   23418825.6334
        41.0004         26.2504
 -19235668.38547 -14976945.11046  20403213.2734   20403208.3364
        46.2504         36.0004
 -21159415.34448 -16470484.31746  21655977.5554   21655972.3524
        50.7504         37.7504
  -1678569.70146  -1221187.02243  24882431.5084   24882426.5944
        38.2504         18.5004
  -7521007.53547  -5834978.90243  23964518.1644   23964514.0394
        42.0004         22.2504
  -2120518.44646  -1626438.11943  24524888.0314   24524885.6684
        39.7504         22.0004
 -23645679.23848 -18325085.70047  20454269.6564   20454266.1954
        53.0004         43.2504
  -8158713.24946  -6676141.01044  23748996.2034   23748995.2584
        41.2504         27.2504
 18  7 27  1 13 30.0000000  0 10G13G11G17G28G07G15G05G09G30G08
 -17685438.43347 -13693724.19945  21867208.9384   21867203.4654
        46.0004         30.0004
 -10540589.46146  -9224537.50543  23854710.5234   23854704.6214
        40.5004         22.5004
 -10383854.17247  -8074246.74644  23399378.5004   23399374.3794
        42.0004         27.5004
 -19232298.88647 -14974319.51246  20403854.6094   20403849.4804
        46.0004         36.2504
 -21108063.66448 -16430470.02046  21665749.6174   21665744.6564
        50.5004         36.7504
  -1778023.84746  -1298683.73643  24863506.3204   24863500.8984
        38.5004         20.0004
  -7453119.31746  -5782078.99043  23977436.7114   23977432.2584
        41.7504         22.5004
  -2007011.93446  -1537991.46943  24546488.9144   24546485.4654
        39.0004         22.5004
 -23633149.12248 -18315321.97247  20456654.1884   20456650.5084
        52.7504         43.2504
  -8080633.11446  -6615299.37344  23763853.9694   23763852.6254
        41.0004         27.0004
 18  7 27  1 14  0.0000000  0 10G13G11G17G28G07G15G05G09G30G08
 -17759359.48347 -13751325.01845  21853142.8364   21853136.1294
        46.5004         31.5004
 -10592584.58846  -9265053.22043  23844816.0164   23844810.8524
        41.0004         22.5004
 -10485914.65547  -8153774.37644  23379957.4924   23379953.5234
        44.0004         28.5004
 -19228554.29847 -14971401.64146  20404567.6024   20404562.4224
        45.7504         36.7504
 -21056462.24748 -16390261.15046  21675568.8674   21675563.6024
        50.5004         37.0004
  -1877279.56446  -1376025.89643  24844618.2504   24844612.6604
        38.5004         18.2504
  -7384960.60847  -5728968.30443  23990407.6564   23990402.5704
        42.0004         22.0004
  -1893444.38846  -1449497.29743  24568099.4534   24568097.9654
        37.7504         22.5004
 -23620323.18248 -18305327.73147  20459094.3754   20459091.2154
        52.5004         43.0004
  -8002151.35146  -6554144.79844  23778789.3204   23778787.1174
        41.5004         27.7504
 18  7 27  1 14 30.0000000  0 10G13G11G17G28G07G15G05G09G30G08
 -17832890.63347 -13808622.00845  21839150.4384   21839143.8594
        45.5004         31.2504
 -10644174.84446  -9305253.43143  23834998.5944   23834993.6374
        40.5004         22.7504
 -10587818.62547  -8233180.07044  23360566.4614   23360561.8874
        44.2504         29.5004
 -19224434.69847 -14968191.56546  20405351.6414   20405345.7504
        46.0004         36.7504
 -21004609.98648 -16349856.81646  21685436.1484   21685430.9454
        50.7504         37.0004
  -1976333.63346  -1453210.88143  24825769.6094   24825763.7974
        39.5004         19.7504
  -7316533.42946  -5675648.41643  24003428.0234   24003424.2814
        41.2504         21.0004
  -1779817.05246  -1360956.54743  24589722.3134   24589719.8634
        37.0004         19.7504
 -23607199.97948 -18295101.86647  20461591.6954   20461589.1454
        53.0004         42.5004
  -7923269.87647  -6492678.73644  23793799.5314   23793798.1644
        42.0004         28.0004
 18  7 27  1 15  0.0000000  0 10G13G11G17G28G07G15G05G09G30G08
 -17906029.51747 -13865613.34445  21825231.5084   21825226.1764
        47.0004         31.5004
 -10695358.15646  -9345136.53043  23825258.9304   23825254.3094
        40.0004         23.2504
 -10689563.80047  -8312462.05544  23341204.3284   23341199.4414
        44.5004         27.0004
 -19219941.03847 -14964689.99746  20406206.8364   20406201.3524
        46.2504         37.7504
 -20952506.42648 -16309256.65746  21695350.9454   21695345.5864
        50.5004         36.7504
  -2075183.22446  -1530236.49743  24806958.5084   24806953.3914
        38.0004         19.2504
  -7247841.01546  -5622121.85243  24016499.9064   24016495.3914
        41.5004         20.2504
  -1666132.24446  -1272370.97443  24611354.4694   24611352.4024
        38.2504         22.0004
 -23593779.21248 -18284644.13447  20464145.4844   20464142.6804
        52.7504         43.0004
  -7843991.26347  -6430903.22644  23808886.5084   23808884.6914
        43.0004         27.7504
 18  7 27  1 15 30.0000000  0 10G13G11G17G28G07G15G05G09G30G08
 -17978773.49947 -13922296.96045  21811388.7114   21811383.1764
        45.7504         31.2504
 -10746131.70046  -9384700.32743  23815596.4924   23815592.7814
        41.2504         22.7504
 -10791147.54347  -8391618.22544  23321873.6174   23321869.1414
        43.7504         27.0004
 -19215074.81047 -14960898.12646  20407132.7114   20407127.2664
        46.5004         38.2504
 -20900152.13748 -16268461.13446  21705313.4064   21705308.7384
        51.0004         36.5004
  -2173826.00946  -1607101.12243  24788187.2734   24788182.6844
        39.5004         18.5004
  -7178886.50347  -5568391.07543  24029621.2424   24029616.5944
        42.0004         21.0004
  -1552392.08946  -1183742.27343  24632999.5554   24632997.0664
        38.7504         21.5004
 -23580060.46248 -18273954.20547  20466756.3134   20466753.2734
        52.2504         43.0004
  -7764317.81947  -6368820.04244  23824047.6334   23824045.8754
        43.0004         28.0004
 18  7 27  1 16  0.0000000  0 10G13G11G17G28G07G15G05G09G30G08
 -18051120.59647 -13978671.31945  21797621.9224   21797616.6604
        46.5004         32.5004
 -10796493.14646  -9423943.03144  23806013.4384   23806008.7584
        41.2504         25.2504
 -10892566.86847  -8470646.27544  23302574.2734   23302569.3014
        44.2504         27.2504
 -19209837.47247 -14956817.06946  20408129.4384   20408124.2894
        46.7504         38.0004
 -20847546.93848 -16227470.07246  21715323.7034   21715318.7774
        49.5004         36.0004
  -2272259.75846  -1683802.71742  24769455.8524   24769450.8324
        37.0004         17.7504
  -7109672.61446  -5514458.17543  24042792.7664   24042787.9104
        41.5004         23.0004
  -1438598.98546  -1095072.30043  24654653.4534   24654650.3204
        37.2504         22.0004
 -23566043.58348 -18263031.96447  20469423.3984   20469420.4574
        52.0004         42.0004
  -7684252.74046  -6306431.71144  23839283.1254   23839281.6454
        40.7504         26.7504
 18  7 27  1 16 30.0000000  0 11G13G11G17G28G07G15G05G09G30G19G08
 -18123068.13147 -14034734.32445  21783930.8754   21783925.5634
        46.7504         32.0004
 -10846440.25047  -9462862.88444  23796509.0314   23796503.6254
        42.5004         25.7504
 -10993819.47447  -8549544.41944  23283306.4144   23283301.0984
        43.5004         26.2504
 -19204230.83947 -14952448.25146  20409196.3754   20409190.8364
        47.0004         38.0004
 -20794690.95948 -16186283.62445  21725382.5084   21725377.3484
        49.7504         35.7504
  -2370482.24646  -1760339.76942  24750765.3674   24750758.9574
        38.0004         17.2504
  -7040202.63547  -5460325.72443  24056012.6254   24056008.0234
        42.0004         22.2504
  -1324755.49846  -1006363.10843  24676317.6094   24676314.6454
        38.5004         22.5004
 -23551728.54648 -18251877.39647  20472146.9774   20472144.3914
        52.7504         42.0004
                                  25799789.516
        32.500
  -7603798.55947  -6243740.16944  23854593.2344   23854591.6994
        42.0004         25.7504
 18  7 27  1 17  0.0000000  0 11G13G11G17G28G07G15G05G09G30G19G08
 -18194613.03747 -14090483.60545  21770316.1954   21770311.7344
        47.0004         32.5004
 -10895969.27147  -9501456.95643  23787084.0394   23787079.0124
        42.2504         23.0004
 -11094901.34547  -8628309.51644  23264070.9534   23264066.1564
        44.5004         26.5004
 -19198254.83047 -14947791.60546  20410333.5394   20410328.2734
        46.7504         37.7504
 -20741583.19348 -16144900.98346  21735488.6804   21735483.0704
        49.2504         36.2504
  -2468490.17046  -1836709.54443  24732114.6884   24732109.1094
        40.7504         19.0004
  -6970478.78146  -5405995.45543  24069280.4924   24069276.0744
        41.5004         22.5004
  -1210862.62746   -917615.38043  24697990.8284   24697987.5944
        37.7504         21.5004
 -23537113.82748 -18240489.31146  20474928.1024   20474925.3834
        51.5004         41.5004
   -741699.42515                  25777431.820
        32.250
  -7522956.79646  -6180746.60044  23869976.8674   23869974.5314
        41.0004         25.0004
 18  7 27  1 17 30.0000000  0 10G13G11G17G28G07G15G05G09G30G08
 -18265753.53447 -14145917.75245  21756778.9384   21756774.3594
        46.7504         33.2504
 -10945078.68447  -9539724.04943  23777739.1174   23777733.4024
        42.0004         23.2504
 -11195810.99147  -8706940.40344  23244868.2424   23244863.3954
        43.7504         27.0004
 -19191911.65847 -14942848.86346  20411540.7504   20411534.7934
        47.0004         37.7504
 -20688224.52348 -16103322.82946  21745642.1414   21745636.7154
        49.2504         36.0004
  -2566281.31546  -1912910.49542  24713505.9534   24713499.5594
        38.5004         17.2504
  -6900504.70946  -5351470.20143  24082595.4844   24082591.4024
        40.7504         21.0004
  -1096923.38346   -828831.55243  24719671.5164   24719669.3714
        37.7504         20.0004
 -23522199.81348 -18228868.00646  20477766.4064   20477763.4964
        52.0004         41.2504
  -7441730.73846  -6117453.59644  23885433.4924   23885431.5514
        40.7504         27.0004
 18  7 27  1 18  0.0000000  0 11G13G11G17G28G07G15G05G09G30G19G08
 -18336486.57947 -14201034.39545  21743318.6254   21743314.5594
        47.2504         33.5004
 -10993765.41946  -9577661.75743  23768474.0474   23768468.8444
        41.5004         22.7504
 -11296544.69647  -8785434.18944  23225699.5474   23225694.7934
        43.7504         27.0004
 -19185202.24547 -14937620.75046  20412817.2034   20412811.2114
        47.2504         38.0004
 -20634614.50248 -16061548.77445  21755843.8204   21755838.3874
        49.0004         35.5004
  -2663853.15946  -1988940.53842  24694937.8674   24694931.8794
        37.5004         17.7504
  -6830282.83746  -5296751.86943  24095958.6174   24095954.5044
        40.2504         20.2504
   -982939.61946   -740013.02143  24741362.0944   24741359.3984
        36.0004         21.5004
 -23506985.82448 -18217012.95946  20480661.2894   20480658.7274
        51.5004         41.5004
   -977065.08115                  25732643.359
        35.000
  -7360122.52946  -6053862.83444  23900963.4844   23900961.4384
        41.2504         27.7504
 18  7 27  1 18 30.0000000  0 11G13G11G17G28G07G15G05G09G30G19G08
 -18406811.01147 -14255832.66245  21729936.0634   21729932.1524
        46.7504         33.7504
 -11042028.45146  -9615269.31743  23759289.4534   23759284.9884
        41.5004         23.5004
 -11397101.55047  -8863790.16845  23206564.2734   23206559.1294
        44.5004         30.0004
 -19178129.36447 -14932109.40146  20414162.8524   20414157.9774
        47.0004         38.5004
 -20580754.46948 -16019579.93845  21766093.0634   21766087.5514
        50.5004         34.5004
  -2761204.35946  -2064798.64043  24676412.2504   24676406.0434
        37.2504         18.5004
  -6759817.89946  -5241844.10143  24109368.4694   24109362.8594
        40.7504         20.7504
   -868914.99145   -651162.67143  24763060.0234   24763057.3794
        34.7504         19.2504
 -23491472.98348 -18204925.04346  20483613.4774   20483611.0004
        51.5004         41.7504
  -1094929.228 5                  25710212.445
        33.500
  -7278136.38247  -5989977.54344  23916565.1954   23916563.0434
        42.5004         26.5004
 18  7 27  1 19  0.0000000  0 11G13G11G17G28G07G15G05G09G30G19G08
 -18476721.23347 -14310308.15345  21716632.5314   21716628.3054
        46.5004         33.2504
 -11089862.22246  -9652542.38443  23750187.4694   23750182.6884
        40.7504         22.5004
 -11497475.93047  -8942003.96544  23187464.0634   23187459.0744
        46.2504         29.5004
 -19170691.08147 -14926313.33146  20415579.1334   20415573.2234
        47.0004         38.5004
 -20526641.17148 -15977413.76045  21776390.5314   21776384.3634
        50.0004         34.5004
  -2858329.84846  -2140480.89243  24657930.3674   24657924.3834
        37.7504         18.5004
  -6689109.81746  -5186746.90543  24122823.3284   24122818.4774
        40.7504         21.5004
   -754848.43445   -562279.63543  24784765.8834   24784763.8324
        35.0004         20.7504
 -23475657.57648 -18192601.35846  20486623.2974   20486620.8014
        52.0004         41.2504
  -1212907.332 5                  25687763.883
        35.250
  -7195771.72446  -5925797.33244  23932238.5004   23932236.9454
        40.5004         26.2504
 18  7 27  1 19 30.0000000  0 11G13G11G17G28G07G15G05G09G30G19G08
 -18546218.66147 -14364461.99645  21703407.5784   21703403.4454
        45.5004         33.2504
 -11137267.88747  -9689481.88444  23741165.7894   23741161.2274
        42.2504         24.5004
 -11597667.96647  -9020075.67644  23168398.0234   23168392.9064
        46.0004         29.5004
 -19162892.44647 -14920236.47346  20417062.4144   20417056.9024
        47.0004         37.7504
 -20472277.97748 -15935052.85645  21786735.2734   21786730.1414
        50.0004         34.0004
  -2955230.38345  -2215987.82842  24639491.2194   24639484.9064
        35.7504         17.2504
  -6618164.87046  -5131465.11643  24136323.9304   24136318.3524
        41.0004         21.2504
   -640745.74746   -473368.50143  24806479.4304   24806476.6954
        36.7504         19.7504
 -23459542.91848 -18180044.49547  20489690.0084   20489687.1914
        51.7504         42.0004
  -1331001.086 5                  25665291.242
        35.250
  -7113034.57046  -5861326.84444  23947982.7504   23947980.7894
        41.2504         24.7504
 18  7 27  1 20  0.0000000  0 11G13G11G17G28G07G15G05G09G30G19G08
 -18615297.07747 -14418289.33545  21690262.4774   21690258.2544
        46.2504         33.0004
 -11184239.22447  -9726082.92443  23732228.1724   23732222.3754
        42.0004         22.5004
 -11697671.62647  -9098000.60944  23149368.3524   23149362.5514
        46.0004         29.2504
 -19154731.38147 -14913877.20446  20418615.8444   20418610.0164
        46.7504         37.7504
 -20417661.65048 -15892494.68345  21797128.1644   21797122.9614
        48.7504         33.7504
  -3051900.04246  -2291314.76443  24621095.3674   24621088.8204
        37.2504         18.2504
  -6546983.00146  -5075998.74843  24149868.8594   24149864.3834
        41.0004         22.5004
   -526605.80846   -384428.26943  24828199.9844   24828197.5704
        38.2504         21.5004
 -23443125.20148 -18167251.47147  20492813.8524   20492811.5984
        52.2504         42.0004
  -1449204.640 5                  25642795.508
        33.500
  -7029924.26346  -5796565.59844  23963798.2504   23963795.9694
        40.2504         25.0004
 18  7 27  1 20 30.0000000  0 11G13G11G17G28G07G15G05G09G30G19G08
 -18683956.12747 -14471789.88945  21677197.1174   21677192.9804
        46.7504         33.5004
 -11230776.09246  -9762345.43743  23723372.1954   23723367.0204
        41.5004         22.7504
 -11797486.03347  -9175778.09744  23130373.7584   23130367.5944
        46.5004         28.2504
 -19146210.76547 -14907237.75546  20420237.2584   20420231.2074
        47.7504         37.5004
 -20362794.20648 -15849740.86845  21807569.1094   21807564.0984
        48.5004         34.2504
  -3148338.28846  -2366461.47743  24602744.2974   24602737.1724
        38.2504         18.5004
  -6475568.77646  -5020351.29843  24163458.6414   24163454.0354
        40.2504         21.2504
   -412432.57246   -295462.06843  24849926.9924   24849923.9144
        38.0004         20.5004
 -23426405.97348 -18154223.51047  20495994.8834   20495992.8244
        51.5004         42.2504
  -1567517.190 5                  25620283.359
        35.250
  -6946445.02646  -5731516.86844  23979683.2034   23979681.4494
        41.0004         25.2504
 18  7 27  1 21  0.0000000  0 11G13G11G17G28G07G15G05G09G30G19G08
 -18752192.81847 -14524961.32745  21664212.5784   21664208.3554
        47.0004         32.7504
 -11276875.33746  -9798266.93543  23714599.9144   23714594.4104
        41.7504         22.7504
 -11897108.14347  -9253405.74744  23111416.7344   23111410.2504
        45.2504         27.5004
 -19137331.40947 -14900318.77746  20421926.8204   20421921.0514
        47.5004         37.7504
 -20307674.97047 -15806790.84445  21818057.7034   21818053.0044
        45.5004         33.7504
  -3244542.08146  -2441425.47242  24584437.5004   24584429.4224
        37.7504         17.2504
  -6403924.43646  -4964524.54143  24177091.5394   24177087.1174
        40.5004         19.7504
   -298227.64246   -206471.28943  24871659.3524   24871656.6684
        38.0004         19.5004
 -23409384.27748 -18140959.86647  20499234.8834   20499231.9844
        52.0004         42.5004
  -1685935.630 6                  25597748.719
        36.000
  -6862599.31446  -5666182.58443  23995638.2894   23995636.6684
        40.5004         23.5004
 18  7 27  1 21 30.0000000  0 11G13G11G17G28G07G15G05G09G30G19G08
 -18820004.81547 -14577801.83945  21651308.2344   21651303.7664
        47.0004         34.2504
 -11322534.74246  -9833845.71143  23705910.5784   23705905.5354
        41.7504         22.5004
 -11996535.26547  -9330881.44644  23092496.1174   23092490.7154
        45.0004         27.5004
 -19128095.07247 -14893121.63046  20423684.4454   20423678.6334
        46.5004         38.0004
 -20252304.01147 -15763644.63645  21828594.0234   21828588.9534
        46.0004         33.0004
  -3340508.94946  -2516204.88143  24566175.2424   24566168.0824
        37.5004         18.2504
  -6332053.51046  -4908521.25243  24190768.6954   24190763.9884
        40.0004         19.7504
   -183993.42746   -117457.60743  24893397.5634   24893393.1524
        38.0004         19.2504
 -23392059.92948 -18127460.38647  20502531.3754   20502529.0474
        51.7504         42.7504
  -1804458.371 5                  25575194.398
        35.000
  -6778389.50546  -5600564.56243  24011663.8984   24011661.6214
        40.7504         22.5004
 18  7 27  1 22  0.0000000  0 11G13G11G17G28G07G15G05G09G30G19G08
 -18887389.50847 -14630309.40445  21638485.3054   21638481.5044
        47.2504         33.5004
 -11367751.59746  -9869079.64043  23697305.7274   23697300.8594
        41.5004         22.0004
 -12095764.55547  -9408202.97844  23073613.0164   23073608.2344
        42.7504         27.0004
 -19118502.94747 -14885647.25446  20425509.5864   20425504.0004
        46.5004         37.2504
 -20196680.95248 -15720302.02645  21839179.7664   21839174.3244
        48.0004         33.2504
  -3436236.22746  -2590797.57643  24547958.8204   24547952.4964
        38.2504         19.7504
  -6259958.73246  -4852343.50643  24204487.6724   24204483.4574
        40.5004         19.5004
    -69731.90646    -28422.64143  24915139.9844   24915136.0234
        38.0004         19.2504
 -23374432.37048 -18113724.64147  20505885.8674   20505883.9654
        52.7504         43.5004
  -1923082.326 5                  25552620.945
        34.750
  -6693818.38846  -5534665.00644  24027757.4844   24027754.9734
        40.7504         24.0004
 18  7 27  1 22 30.0000000  0 12G13G11G17G28G07G15G18G05G09G30G19G08
 -18954344.79247 -14682482.36445  21625744.2114   21625739.9184
        47.5004         33.5004
 -11412524.10346  -9903967.32543  23688786.3364   23688781.5904
        41.2504         22.5004
 -12194793.67247  -9485368.51144  23054768.0864   23054763.5204
        43.0004         26.7504
 -19108556.68347 -14877896.91946  20427402.4614   20427397.2544
        47.2504         37.7504
 -20140806.36747 -15676763.40645  21849812.1334   21849806.2504
        47.7504         32.7504
  -3531721.78046  -2665201.96043  24529788.4064   24529782.8134
        39.5004         19.2504
   -236905.76615                  24983984.727
        33.750
  -6187643.76946  -4795994.14143  24218248.4144   24218244.3134
        40.0004         20.0004
     44554.28946     60631.54342  24936887.8524   24936883.6214
        36.0004         17.7504
 -23356501.66148 -18099752.67947  20509297.9774   20509296.1684
        51.7504         42.5004
  -2041805.435 5                  25530028.742
        35.000
  -6608889.00046  -5468486.28744  24043918.3524   24043916.7344
        40.5004         24.5004
 18  7 27  1 23  0.0000000  0 12G13G11G17G28G07G15G18G05G09G30G19G08
 -19020869.52847 -14734319.82745  21613085.1564   21613080.4654
        47.7504         33.0004
 -11456851.09546  -9938507.82843  23680351.4454   23680346.3554
        40.7504         22.5004
 -12293620.87147  -9562376.68344  23035961.3984   23035957.4804
        43.0004         26.5004
 -19098258.86248 -14869872.66046  20429362.0474   20429356.7464
        48.0004         37.7504
 -20084681.27548 -15633029.58145  21860492.6174   21860487.3324
        48.7504         34.0004
  -3626964.32346  -2739416.92343  24511664.4534   24511660.1844
        38.2504         21.0004
   -293443.472 5                  24973226.742
        35.750
  -6115112.45846  -4739476.23543  24232051.0634   24232046.9264
        40.5004         19.7504
    158861.89346    149702.42942  24958640.2584   24958636.2974
        37.2504         17.2504
 -23338268.57548 -18085545.08647  20512767.6724   20512765.5944
        51.5004         42.7504
  -2160626.758 5                  25507417.875
        33.000
  -6523604.95647  -5402031.20744  24060148.1024   24060146.0164
        42.0004         25.2504
 18  7 27  1 23 30.0000000  0 12G13G11G17G28G07G15G18G05G09G30G19G08
 -19086957.90547 -14785817.27745  21600508.9144   21600504.3014
        47.0004         33.5004
 -11500726.52646  -9972696.49044  23672002.4144   23671997.7034
        41.2504         24.0004
 -12392240.18947  -9639222.87744  23017194.7504   23017190.8284
        43.5004         28.0004
 -19087607.50747 -14861572.90046  20431389.0944   20431383.5204
        47.2504         37.7504
 -20028302.73948 -15589098.26645  21871221.0704   21871215.3284
        48.7504         33.2504
  -3721958.07046  -2813438.03043  24493587.1724   24493584.1094
        38.5004         21.7504
   -349623.255 5                  24962536.195
        35.500
  -6042364.93546  -4682789.82743  24245894.3984   24245890.3874
        39.5004         19.5004
    273192.02846    238790.85943  24980396.2424   24980393.4224
        37.5004         18.2504
 -23319729.44348 -18071099.01647  20516295.4924   20516293.4304
        51.7504         42.7504
  -2279540.376 5                  25484788.859
        32.750
  -6437965.57546  -5335299.26744  24076443.9694   24076442.4774
        40.0004         26.2504
 18  7 27  1 24  0.0000000  0 12G13G11G17G28G07G15G18G05G09G30G19G08
 -19152609.02647 -14836974.01145  21588015.8594   21588010.9264
        46.5004         33.5004
 -11544150.15347 -10006533.09043  23663738.9144   23663733.7624
        42.0004         23.2504
 -12490650.96447  -9715906.59744  22998468.8444   22998463.8134
        45.0004         28.7504
 -19076605.69647 -14853000.06146  20433482.7974   20433477.3714
        47.0004         37.5004
 -19971671.94948 -15544970.40445  21881997.2734   21881992.1684
        48.5004         34.5004
  -3816702.09146  -2887264.53143  24475558.3134   24475555.2344
        38.7504         22.7504
   -405443.526 6                  24951915.008
        37.250
  -5969405.62746  -4625938.43443  24259778.3914   24259773.5554
        39.5004         20.0004
    387540.88246    327893.83743  25002155.9694   25002154.3984
        36.2504         18.2504
 -23300885.54948 -18056415.47647  20519881.1724   20519878.7544
        51.5004         42.5004
  -2398545.392 5                  25462140.484
        31.000
  -6351975.50646  -5268294.04444  24092807.9304   24092805.8524
        40.7504         26.0004
 18  7 27  1 24 30.0000000  0 12G13G11G17G28G07G15G18G05G09G30G19G08
 -19217820.89347 -14887788.45945  21575606.5784   21575601.7664
        47.0004         32.0004
 -11587119.63246 -10040015.80143  23655563.9304   23655557.2624
        40.7504         22.2504
 -12588849.88747  -9792425.25045  22979782.7504   22979776.9384
        47.2504         30.2504
 -19065254.71347 -14844155.13446  20435642.3834   20435637.0234
        47.0004         38.2504
 -19914788.95348 -15500646.00545  21892821.5944   21892816.8714
        48.0004         33.0004
  -3911194.32746  -2960894.84343  24457577.3284   24457574.1724
        37.7504         21.5004
   -460902.187 6                  24941360.539
        37.500
  -5896237.11146  -4568924.02543  24273701.5234   24273697.3914
        38.5004         18.2504
    501906.05646    417009.56342  25023919.7584   25023915.8014
        36.5004         17.2504
 -23281736.79348 -18041494.37247  20523525.0394   20523523.2734
        51.7504         42.5004
  -2517639.754 5                  25439479.141
        33.250
  -6265637.23446  -5201017.51244  24109237.7894   24109235.7464
        39.0004         24.2504
 18  7 27  1 25  0.0000000  0 12G13G11G17G28G07G15G18G05G09G30G19G08
 -19282591.37747 -14938258.97645  21563280.8834   21563275.8914
        45.0004         32.7504
 -11629632.80646 -10073142.96043  23647471.4534   23647466.3874
        41.0004         22.5004
 -12686834.71247  -9868777.07645  22961136.5864   22961131.0314
        47.5004         31.5004
 -19053556.51847 -14835039.65946  20437869.0084   20437863.3754
        47.5004         38.2504
 -19857654.39347 -15456125.58845  21903693.6804   21903689.1884
        47.0004         33.2504
  -4005432.22646  -3034326.99643  24439643.9534   24439641.3874
        37.2504         21.5004
   -515996.223 6                  24930877.211
        36.750
  -5822863.51646  -4511749.81143  24287664.1644   24287659.7424
        39.2504         18.2504
    616285.06446    506136.05843  25045685.4384   25045681.3674
        37.0004         19.5004
 -23262282.99248 -18026335.57047  20527226.9844   20527225.2074
        51.0004         42.5004
  -2636821.177 5                  25416801.375
        34.000
  -6178953.52546  -5133471.79444  24125732.8674   24125731.0634
        40.0004         24.0004
 18  7 27  1 25 30.0000000  0 12G13G11G17G28G07G15G18G05G09G30G19G08
 -19346917.53747 -14988383.24945  21551040.0394   21551034.5744
        46.0004         33.2504
 -11671687.23146 -10105912.66443  23639470.1804   23639464.4104
        40.5004         22.5004
 -12784602.59247  -9944959.84945  22942531.9924   22942525.9964
        47.2504         31.2504
 -19041511.92747 -14825654.26446  20440160.5084   20440155.4654
        47.0004         37.7504
 -19800267.87747 -15411408.85245  21914613.8364   21914609.7114
        47.2504         32.5004
  -4099412.86846  -3107558.63643  24421760.1024   24421757.6764
        37.2504         22.7504
   -570722.405 6                  24920462.539
        37.500
  -5749287.30946  -4454417.72543  24301664.9304   24301660.0904
        37.7504         18.5004
    730676.34146    595272.10143  25067452.2344   25067449.6174
        38.2504         19.2504
 -23242523.36948 -18010938.47047  20530986.7814   20530985.2504
        50.5004         42.5004
  -2756086.95745  -2104529.87853  25394105.6484   25394097.8714
        33.7504         18.5004
  -6091926.85546  -5065658.84843  24142293.2504   24142291.7464
        40.7504         22.7504
 18  7 27  1 26  0.0000000  0 12G13G11G17G28G07G15G18G05G09G30G19G08
 -19410797.22647 -15038159.62545  21538884.4224   21538878.8954
        45.5004         33.0004
 -11713280.45346 -10138322.93343  23631554.3834   23631549.8554
        40.5004         22.7504
 -12882150.47647 -10020971.19545  22923969.1484   22923963.2034
        47.0004         30.0004
 -19029122.61647 -14816000.25846  20442518.1414   20442512.8674
        47.0004         37.5004
 -19742629.39547 -15366495.76845  21925583.1174   21925577.8914
        47.5004         33.0004
  -4193134.25946  -3180588.25443  24403925.9384   24403922.9694
        38.2504         22.7504
   -625078.46146   -372150.12452  24910119.2814   24910115.5164
        36.2504         17.2504
  -5675511.55846  -4396930.11043  24315704.5164   24315698.2074
        38.5004         18.2504
    845077.35846    684415.74942  25089222.3204   25089219.2194
        36.7504         17.7504
 -23222457.78448 -17995302.96647  20534805.2814   20534804.1294
        50.7504         42.5004
  -2875434.38745  -2197527.82642  25371393.4304   25371386.9534
        35.2504         16.7504
  -6004560.18946  -4997580.97843  24158918.5704   24158916.1844
        40.0004         22.7504
 18  7 27  1 26 30.0000000  0 12G13G11G17G28G07G15G18G05G09G30G19G08
 -19474227.73947 -15087585.99045  21526813.5864   21526808.7274
        44.7504         33.5004
 -11754410.12946 -10170372.05743  23623728.9774   23623722.8134
        40.7504         23.2504
 -12979476.10247 -10096809.34045  22905448.9534   22905443.4694
        46.5004         30.5004
 -19016389.59447 -14806078.43846  20444940.9924   20444936.1024
        46.5004         37.5004
 -19684738.77047 -15321386.21345  21936599.0474   21936594.5944
        46.7504         33.0004
  -4286593.38246  -3253413.53943  24386141.6094   24386137.2774
        37.7504         22.5004
   -679060.98346   -414214.36642  24899847.2424   24899842.8594
        37.0004         15.5004
  -5601539.08546  -4339289.20043  24329781.7974   24329774.9844
        39.2504         18.2504
    959486.46846    773565.73042  25110993.9774   25110990.9844
        36.0004         16.7504
 -23202085.59148 -17979428.53147  20538681.7344   20538680.4574
        50.5004         42.2504
  -2994860.83345  -2290587.37943  25348666.8984   25348660.8094
        35.0004         19.2504
  -5916855.82846  -4929239.93144  24175608.0554   24175606.9734
        39.0004         25.0004
 18  7 27  1 27  0.0000000  0 12G13G11G17G28G07G15G18G05G09G30G19G08
 -19537207.23347 -15136660.93045  21514828.8524   21514824.1294
        44.7504         34.2504
 -11795074.44746 -10202058.52643  23615990.1484   23615985.0864
        41.0004         23.2504
 -13076576.58847 -10172472.06945  22886971.1254   22886965.8204
        46.0004         30.2504
 -19003314.82447 -14795890.30046  20447429.0784   20447423.7384
        47.0004         38.0004
 -19626596.54747 -15276080.60145  21947662.9064   21947657.8984
        47.0004         33.5004
  -4379787.98546  -3326032.70143  24368407.1254   24368402.2304
        39.0004         22.7504
   -732667.76746   -455985.97742  24889645.6724   24889641.4694
        39.5004         16.2504
  -5527373.31146  -4281497.66342  24343895.5944   24343888.7194
        40.2504         17.7504
   1073900.85146    862719.78843  25132765.9384   25132764.4494
        36.0004         18.5004
 -23181406.88648 -17963315.26947  20542617.1484   20542615.5084
        51.0004         42.5004
  -3114364.31845  -2383706.96743  25325927.1414   25325920.4804
        34.5004         18.2504
  -5828816.71846  -4860638.06244  24192362.0084   24192360.1134
        40.0004         24.5004
 18  7 27  1 27 30.0000000  0 12G13G11G17G28G07G15G18G05G09G30G19G08
 -19599732.83847 -15185382.17845  21502931.1724   21502926.0394
        45.5004         34.5004
 -11835270.55846 -10233380.20244  23608340.7504   23608335.2464
        39.2504         25.5004
 -13173448.83647 -10247956.94944  22868536.4844   22868531.5314
        45.5004         29.0004
 -18989899.06147 -14785436.46246  20449982.3834   20449976.8014
        47.0004         37.7504
 -19568201.98147 -15230578.36845  21958775.5944   21958770.6254
        47.2504         34.5004
  -4472715.33546  -3398443.62843  24350723.3594   24350718.4144
        39.2504         22.0004
   -785895.52946   -497462.17442  24879516.9774   24879512.9884
        37.7504         16.2504
  -5453016.82746  -4223557.56242  24358044.5554   24358038.3984
        40.2504         17.2504
   1188318.92345    951876.69143  25154539.8524   25154537.2934
        35.7504         19.2504
 -23160420.88548 -17946962.56247  20546610.9694   20546609.0784
        50.7504         42.7504
  -3233942.17346  -2476884.53843  25303173.0164   25303165.0784
        36.0004         18.2504
  -5740445.09246  -4791777.11444  24209178.8594   24209176.8794
        39.5004         24.5004
 18  7 27  1 28  0.0000000  0 12G13G11G17G28G07G15G18G05G09G30G19G08
 -19661802.38447 -15233748.05545  21491119.4304   21491114.5944
        46.0004         35.0004
 -11874996.59246 -10264335.56944  23600781.3984   23600776.5394
        40.7504         24.7504
 -13270090.13547 -10323261.85644  22850146.0084   22850141.9024
        44.2504         28.2504
 -18976143.65447 -14774717.96346  20452599.9144   20452594.5044
        47.5004         37.2504
 -19509555.16947 -15184879.57145  21969935.3594   21969930.6484
        46.7504         33.0004
  -4565372.75246  -3470644.18643  24333091.4144   24333085.0744
        39.0004         21.2504
   -838741.34546   -538640.63142  24869460.1804   24869456.1684
        38.5004         15.5004
  -5378472.41646  -4165470.98043  24372229.4144   24372223.6024
        40.0004         18.5004
   1302738.71345   1041034.86142  25176312.2274   25176310.3204
        34.7504         15.5004
 -23139127.15748 -17930370.06147  20550663.3134   20550661.0784
        51.7504         43.7504
  -3353591.26245  -2570117.61642  25280403.8674   25280395.8914
        34.7504         15.5004
  -5651743.87746  -4722659.27444  24226057.9064   24226055.4224
        39.5004         24.0004
 18  7 27  1 28 30.0000000  0 12G13G11G17G28G07G15G18G05G09G30G19G08
 -19723413.03247 -15281756.35345  21479395.7114   21479390.8364
        46.5004         35.5004
 -11914250.00846 -10294922.64644  23593310.9694   23593306.7584
        39.5004         24.5004
 -13366497.62147 -10398384.55544  22831800.4924   22831795.7154
        43.7504         28.0004
 -18962050.20547 -14763736.06146  20455281.7424   20455275.9694
        47.5004         37.7504
 -19450656.18148 -15138984.28545  21981144.0704   21981138.4224
        48.0004         33.7504
  -4657757.68046  -3542632.46743  24315511.5864   24315504.3164
        39.2504         21.2504
   -891202.34646   -579519.32742  24859477.1094   24859473.1334
        37.5004         16.2504
  -5303743.13146  -4107240.37442  24386449.4844   24386444.4064
        39.7504         17.2504
   1417157.97346   1130192.75042  25198086.5634   25198083.1524
        36.7504         15.5004
 -23117525.25348 -17913537.41047  20554774.2584   20554772.0084
        52.0004         43.5004
  -3473309.15145  -2663404.31442  25257623.3444   25257613.9534
        35.5004         16.7504
  -5562715.22046  -4653286.35243  24242999.0474   24242997.6054
        40.0004         22.5004
 18  7 27  1 29  0.0000000  0 12G13G11G17G28G07G15G18G05G09G30G19G08
 -19784562.79447 -15329405.52345  21467759.3284   21467754.6294
        47.0004         34.5004
 -11953028.25346 -10325139.47143  23585932.4924   23585927.5204
        38.7504         22.0004
 -13462668.82947 -10473323.16145  22813500.4534   22813495.3834
        44.5004         30.0004
 -18947619.64147 -14752491.46546  20458027.7734   20458022.4534
        45.7504         37.0004
 -19391504.82947 -15092892.33545  21992399.9064   21992395.5394
        47.0004         33.0004
  -4749867.51446  -3614406.39743  24297983.4144   24297977.3404
        38.2504         20.5004
   -943275.84246   -620096.02742  24849568.0394   24849564.6764
        38.2504         16.2504
  -5228832.25446  -4048868.26842  24400704.8134   24400699.0784
        39.0004         17.7504
   1531574.74646   1219348.73742  25219858.9454   25219854.9144
        36.5004         17.2504
 -23095614.74848 -17896464.29647  20558943.8134   20558941.5434
        52.5004         44.0004
  -3593093.38746  -2756742.71942  25234828.5554   25234820.0044
        36.5004         15.5004
  -5473361.96246  -4583660.48943  24260002.9614   24260001.0234
        38.2504         23.7504
 18  7 27  1 29 30.0000000  0 12G13G11G17G28G07G15G18G05G01G30G19G08
 -19845248.55447 -15376693.12745  21456210.8674   21456206.0704
        47.0004         34.5004
 -11991329.32146 -10354984.46343  23578643.7664   23578638.6414
        38.7504         22.5004
 -13558600.37247 -10548075.02445  22795245.2894   22795240.3054
        45.2504         31.2504
 -18932853.13547 -14740985.10646  20460837.7424   20460832.3594
        47.0004         38.0004
 -19332100.84248 -15046603.51845  22003704.0394   22003698.9344
        48.0004         32.2504
  -4841699.44046  -3685963.70943  24280507.9144   24280502.4064
        39.5004         20.7504
   -994958.74346   -660368.34842  24839734.0634   24839729.0474
        37.7504         15.5004
  -5153742.22846  -3990356.56042  24414994.1024   24414988.8714
        37.0004         16.7504
                                  25219062.133
        37.000
 -23073394.96448 -17879150.18547  20563172.0784   20563169.9264
        52.5004         44.5004
  -3712940.79746  -2850130.38942  25212022.6414   25212013.5864
        37.5004         17.2504
  -5383686.12846  -4513783.24744  24277067.5944   24277065.7704
        38.5004         24.5004
 18  7 27  1 30  0.0000000  0 12G13G11G17G28G07G15G18G05G01G30G19G08
 -19905471.50047 -15423620.10445  21444751.0554   21444746.0004
        46.5004         34.5004
 -12029154.15646 -10384458.34543  23571445.6564   23571441.0984
        38.5004         22.5004
 -13654293.24347 -10622640.89745  22777035.3364   22777030.6954
        45.2504         32.2504
 -18917755.49348 -14729220.71046  20463710.8674   20463705.6524
        48.0004         37.5004
 -19272447.55248 -15000120.46945  22015055.9614   22015051.2034
        48.0004         32.5004
  -4933254.07846  -3757304.96443  24263085.5164   24263080.5004
        38.5004         20.7504
  -1046251.61046   -700336.84742  24829972.0864   24829967.8874
        37.0004         16.2504
  -5078479.37146  -3931710.17442  24429316.9774   24429310.7074
        38.5004         17.2504
    550810.96945    452658.20952  25205147.0944   25205145.3834
        35.5004         17.7504
 -23050868.90748 -17861597.42047  20567458.9224   20567456.4654
        52.5004         44.5004
  -3832852.19546  -2943567.88042  25189202.6094   25189194.0664
        37.0004         17.2504
  -5293694.22446  -4443659.73843  24294192.0394   24294191.0944
        38.0004         22.5004
 18  7 27  1 30 30.0000000  0 12G13G11G17G28G07G15G18G05G01G30G19G08
 -19965224.07147 -15470180.56045  21433380.4534   21433375.2384
        46.5004         34.5004
 -12066495.18046 -10413555.24743  23564340.6804   23564335.0784
        38.5004         22.5004
 -13749738.93247 -10697014.18245  22758872.9694   22758868.0274
        45.5004         34.0004
 -18902323.26347 -14717195.60146  20466647.2974   20466641.8874
        47.0004         38.0004
 -19212539.63047 -14953439.01045  22026456.0634   22026450.7854
        47.0004         32.7504
  -5024523.79546  -3828424.23743  24245717.9064   24245712.8164
        38.7504         21.5004
  -1097146.37746   -739995.09342  24820286.9534   24820283.7774
        37.5004         16.2504
  -5003041.35746  -3872927.32843  24443671.7114   24443665.9574
        38.5004         18.2504
    477865.56445    395817.64242  25191262.7274   25191262.6254
        35.2504         17.7504
 -23028030.96848 -17843801.63347  20571804.9454   20571802.3244
        52.5004         44.5004
  -3952819.89846  -3037049.25243  25166375.3834   25166366.9024
        37.5004         19.0004
  -5203383.66946  -4373287.93343  24311378.0864   24311376.7344
        38.5004         23.7504
 18  7 27  1 31  0.0000000  0 12G13G11G17G28G07G15G18G05G01G30G19G08
 -20024507.14047 -15516375.15845  21422099.3204   21422094.2464
        46.0004         33.7504
 -12103353.37346 -10442275.92243  23557326.4694   23557321.5314
        39.2504         22.5004
 -13844937.90447 -10771195.21445  22740756.8444   22740752.3014
        46.0004         33.5004
 -18886560.28748 -14704912.76346  20469647.6724   20469641.3754
        48.0004         38.0004
 -19152380.20548 -14906561.55445  22037903.9144   22037899.1374
        48.2504         32.7504
  -5115509.06046  -3899321.82343  24228403.5004   24228399.3164
        39.2504         22.0004
  -1147643.41146   -779343.36942  24810678.2974   24810674.8754
        36.7504         15.5004
  -4927433.84946  -3814012.42942  24458058.8594   24458053.4064
        38.0004         17.7504
    405102.09446    339118.83543  25177417.7664   25177417.3404
        36.5004         19.0004
 -23004883.59448 -17825764.72247  20576209.2034   20576207.3874
        51.7504         44.5004
  -4072844.20746  -3130574.71443  25143536.1094   25143527.0204
        37.0004         19.7504
  -5112759.61246  -4302671.79344  24328623.5164   24328621.6374
        38.5004         24.2504
 18  7 27  1 31 30.0000000  0 12G13G11G17G28G07G15G18G05G01G30G19G08
 -20083317.53547 -15562201.43545  21410908.1884   21410903.6804
        46.0004         34.0004
 -12139726.12846 -10470618.32943  23550404.2504   23550400.3164
        38.2504         22.0004
 -13939886.96747 -10845181.50045  22722688.2814   22722684.4924
        44.7504         32.7504
 -18870467.49447 -14692372.92746  20472709.3914   20472703.9144
        47.5004         37.5004
 -19091968.49447 -14859487.51145  22049399.1414   22049395.2624
        46.0004         33.2504
  -5206206.63046  -3969995.22543  24211144.4064   24211140.0824
        39.7504         22.0004
  -1197739.46545   -818379.24042  24801143.1884   24801141.4104
        35.7504         15.5004
  -4851659.94146  -3754967.78842  24472478.6414   24472472.5594
        38.7504         15.5004
    332524.06345    282564.57442  25163609.2894   25163607.3244
        35.0004         17.2504
 -22981425.99948 -17807486.08747  20580673.2344   20580671.0474
        52.5004         44.0004
  -4192922.03245  -3224141.89543  25120685.3204   25120678.3324
        35.7504         22.0004
  -5021824.17546  -4231813.09444  24345927.7114   24345926.2814
        38.7504         24.5004
 18  7 27  1 32  0.0000000  0 12G13G11G17G28G07G15G18G05G01G30G19G08
 -20141652.87747 -15607657.55445  21399806.7344   21399803.3634
        46.2504         35.5004
 -12175610.81346 -10498580.44543  23543576.6804   23543571.0824
        38.5004         23.0004
 -14034582.99547 -10918970.61245  22704667.9924   22704663.8094
        44.5004         32.7504
 -18854046.16347 -14679577.08946  20475834.4774   20475829.0554
        46.5004         38.0004
 -19031304.81048 -14812217.12645  22060944.1254   22060938.5514
        48.0004         33.7504
  -5296613.81946  -4040442.38743  24193941.1024   24193935.8834
        39.7504         22.7504
  -1247431.38046   -857100.13942  24791689.2584   24791685.6094
        36.7504         16.2504
  -4775722.55946  -3695795.90142  24486927.0394   24486921.4844
        36.2504         16.2504
    260134.98845    226157.47142  25149833.0234   25149830.9964
        34.2504         16.2504
 -22957657.62148 -17788965.27947  20585195.9454   20585193.5514
        51.2504         43.7504
  -4313050.66845  -3317748.64343  25097825.3134   25097818.2154
        34.5004         20.0004
  -4930580.22046  -4160713.95144  24363290.8834   24363289.4264
        38.5004         24.5004
 18  7 27  1 32 30.0000000  0 12G13G11G17G28G07G15G18G05G01G30G19G08
 -20199511.22647 -15652741.98045  21388796.7584   21388793.7974
        46.5004         35.7504
 -12211006.07846 -10526161.14643  23536839.5944   23536835.8444
        38.7504         22.7504
 -14129023.99047 -10992560.99345  22686696.4224   22686692.9184
        43.7504         31.2504
 -18837298.39248 -14666526.88346  20479021.5944   20479016.2894
        48.0004         38.0004
 -18970389.29947 -14764750.53045  22072535.5084   22072530.2424
        46.7504         33.7504
  -5386728.66946  -4110661.73943  24176792.3524   24176788.3754
        41.0004         22.5004
  -1296717.21846   -895504.74842  24782310.2114   24782306.6764
        37.0004         16.2504
  -4699624.53346  -3636498.68442  24501409.0084   24501404.1564
        38.5004         17.2504
    187937.45145    169899.65542  25136092.5084   25136091.7274
        33.5004         16.2504
 -22933578.63248 -17770202.43847  20589777.7424   20589775.5664
        50.5004         42.5004
  -4433227.88045  -3411393.21443  25074955.5944   25074949.4804
        33.2504         21.5004
  -4839030.93446  -4089376.90943  24380712.1334   24380710.8794
        38.7504         22.5004
 18  7 27  1 33  0.0000000  0 12G13G11G17G28G07G15G18G05G01G30G19G08
 -20256890.49047 -15697453.09246  21377878.1564   21377874.4614
        47.2504         36.2504
 -12245909.49346 -10553358.61943  23530197.8754   23530193.6134
        38.2504         21.7504
 -14223206.97847 -11065950.30945  22668774.0314   22668770.4734
        44.2504         31.0004
 -18820225.05748 -14653222.98846  20482271.1724   20482265.4104
        48.0004         38.0004
 -18909221.95447 -14717087.68945  22084175.5554   22084169.5824
        46.7504         32.5004
  -5476548.45446  -4180651.18743  24159700.3364   24159695.1294
        40.0004         22.2504
  -1345594.02746   -933590.52042  24773009.6254   24773005.7074
        37.0004         14.7504
  -4623368.86446  -3577078.65042  24515921.3674   24515913.6844
        37.0004         15.5004
    115935.07645    113793.97343  25122391.9534   25122391.6644
        35.5004         18.2504
 -22909188.44448 -17751197.11146  20594418.3444   20594417.0394
        50.2504         41.7504
  -4553450.79645  -3505073.36543  25052076.3594   25052069.9774
        34.2504         19.5004
  -4747178.59946  -4017803.66243  24398191.2584   24398188.9924
        38.0004         22.5004
 18  7 27  1 33 30.0000000  0 12G13G11G17G28G07G15G18G05G01G30G19G08
 -20313788.38348 -15741789.11646  21367050.9064   21367047.0474
        48.0004         36.0004
 -12280319.50646 -10580171.59843  23523650.2974   23523645.5044
        39.7504         22.7504
 -14317129.77547 -11139136.89645  22650900.8834   22650897.0904
        45.0004         30.5004
 -18802827.95948 -14639666.81446  20485580.7424   20485574.9924
        48.0004         38.5004
 -18847803.13147 -14669228.89345  22095863.1094   22095858.4654
        47.0004         32.5004
  -5566070.98546  -4250408.99743  24142664.5864   24142659.9964
        39.7504         21.5004
  -1394059.62846   -971355.93842  24763786.4144   24763782.7584
        36.0004         15.5004
  -4546959.13246  -3517538.64742  24530462.1254   24530453.6604
        37.0004         15.5004
     44130.41045     57842.28642  25108725.9694   25108725.2234
        34.5004         17.2504
 -22884487.07348 -17731949.31746  20599118.6334   20599117.1724
        49.5004         40.7504
  -4673717.10945  -3598787.37643  25029192.4144   25029186.1174
        35.7504         20.2504
  -4655026.08846  -3945996.57343  24415727.0394   24415725.2584
        38.5004         22.0004
 18  7 27  1 34  0.0000000  0 12G13G11G17G28G07G15G18G05G01G30G19G08
 -20370202.44047 -15785748.13145  21356315.8134   21356311.1374
        47.7504         35.2504
 -12314233.80146 -10606598.33043  23517197.0314   23517192.4264
        40.2504         23.2504
 -14410789.28647 -11212118.33845  22633078.8754   22633074.1024
        45.5004         32.0004
 -18785108.39747 -14625859.37246  20488953.1484   20488947.2274
        47.7504         39.2504
 -18786132.39947 -14621173.82245  22107598.8134   22107593.7304
        47.0004         32.7504
  -5655293.43046  -4319932.97643  24125685.5164   24125681.4844
        39.0004         23.0004
  -1442110.77746  -1008798.35542  24754641.7974   24754638.7734
        36.2504         14.7504
  -4470397.75146  -3457880.46442  24545030.2344   24545023.6254
        37.2504         14.7504
    -27472.84745      2047.62342  25095101.7274   25095102.4414
        34.2504         17.2504
 -22859473.81548 -17712458.50746  20603878.8364   20603877.0634
        49.0004         41.0004
  -4794024.03846  -3692532.96843  25006299.0314   25006292.5634
        38.0004         22.5004
  -4562575.86946  -3873957.42843  24433319.7664   24433318.1054
        38.0004         22.0004
 18  7 27  1 34 30.0000000  0 12G13G11G17G28G07G15G18G05G01G30G19G08
 -20426130.21148 -15829328.21945  21345673.1484   21345667.9774
        48.2504         35.0004
 -12347650.14146 -10632637.04443  23510838.4144   23510833.2664
        40.0004         23.7504
 -14504182.83847 -11284892.55445  22615306.3284   22615301.8444
        46.2504         32.5004
 -18767067.57948 -14611801.58946  20492385.9924   20492380.3594
        48.0004         38.5004
 -18724209.97747 -14572922.59745  22119382.1884   22119376.8714
        47.5004         32.5004
  -5744213.22046  -4389221.13843  24108765.4614   24108760.3524
        40.0004         21.5004
  -1489744.96746  -1045915.85642  24745578.9224   24745574.7424
        37.0004         15.5004
  -4393687.72046  -3398106.45842  24559628.3914   24559621.4454
        37.0004         15.5004
    -98871.27746    -53587.52942  25081514.8364   25081515.1914
        36.2504         17.2504
 -22834148.21948 -17692724.29946  20608698.1484   20608696.6414
        49.5004         41.7504
  -4914368.60546  -3786308.03743  24983397.8284   24983391.4144
        39.2504         22.0004
  -4469830.47746  -3801688.41043  24450968.6174   24450967.1604
        37.7504         22.7504
 18  7 27  1 35  0.0000000  0 12G13G11G17G28G07G15G18G05G01G30G19G08
 -20481570.24748 -15872528.24645  21335122.7114   21335117.5904
        48.2504         35.5004
 -12380567.10946 -10658286.62844  23504574.4924   23504570.1134
        40.7504         24.5004
 -14597307.83547 -11357457.50345  22597585.6174   22597581.2304
        46.5004         32.0004
 -18748707.59647 -14597495.11646  20495879.9694   20495874.4454
        47.7504         39.0004
 -18662036.51447 -14524475.76845  22131212.9144   22131208.2704
        47.5004         32.7504
  -5832828.06146  -4458271.67643  24091902.0554   24091897.9574
        39.7504         21.7504
  -1536959.97646  -1082706.76142  24736593.6564   24736588.6844
        38.0004         15.5004
  -4316832.90246  -3338219.58642  24574251.1334   24574246.7704
        36.5004         17.2504
   -170062.46845   -109061.23342  25067968.0234   25067968.1604
        35.5004         16.7504
 -22808510.57948 -17672746.94547  20613577.1954   20613575.4144
        50.2504         42.0004
  -5034748.90246  -3880110.90543  24960491.0704   24960483.8834
        40.0004         23.2504
  -4376793.22546  -3729191.90543  24468673.3914   24468671.7894
        38.0004         22.5004
 18  7 27  1 35 30.0000000  0 12G13G11G17G28G07G15G18G05G01G30G19G08
 -20536519.67148 -15915345.96945  21324665.9924   21324660.4344
        48.5004         34.7504
 -12412982.21646 -10683545.16143  23498406.0864   23498401.5864
        39.7504         22.5004
 -14690161.59447 -11429811.10445  22579916.0944   22579911.5904
        46.5004         33.5004
 -18730029.22047 -14582940.54946  20499434.0084   20499428.5164
        47.7504         38.5004
 -18599610.98348 -14475832.55145  22143093.0394   22143087.2304
        48.0004         32.0004
  -5921135.17246  -4527082.40143  24075098.2274   24075093.0004
        40.0004         21.7504
  -1583752.70246  -1119168.66642  24727689.5474   24727684.7584
        39.5004         16.2504
  -4239835.32846  -3278221.46842  24588905.5314   24588899.2854
        37.2504         17.7504
   -241042.69846   -164370.48143  25054461.8754   25054461.4304
        36.7504         19.0004
 -22782560.03848 -17652525.75247  20618515.8134   20618513.5164
        50.5004         43.5004
  -5155161.59746  -3973939.03343  24937577.2034   24937570.2344
        40.5004         23.5004
  -4283466.60346  -3656469.88544  24486432.0394   24486431.0474
        39.7504         24.7504
 18  7 27  1 36  0.0000000  0 12G13G11G17G28G07G15G18G05G01G30G19G08
 -20590976.71348 -15957780.01745  21314303.5784   21314296.9534
        49.0004         34.7504
 -12444893.79546 -10708411.36043  23492333.6414   23492328.4694
        40.0004         22.7504
 -14782741.54447 -11501951.33945  22562299.2584   22562294.6564
        46.7504         34.5004
 -18711034.16348 -14568139.21446  20503048.3204   20503043.0944
        48.0004         38.0004
 -18536934.21747 -14426993.52045  22155018.7274   22155014.1804
        46.5004         31.0004
  -6009132.34546  -4595651.66643  24058352.5944   24058347.6334
        40.2504         22.5004
  -1630120.86546  -1155299.69042  24718865.9614   24718860.7034
        36.5004         15.5004
  -4162698.67546  -3218115.03442  24603582.2664   24603579.1024
        37.5004         15.5004
   -311808.95246   -219512.98642  25040994.7344   25040995.1174
        36.5004         17.7504
 -22756296.52948 -17632060.68747  20623513.8444   20623511.7194
        51.5004         43.7504
  -5275604.82746  -4067790.94343  24914657.8594   24914649.7194
        40.2504         23.2504
  -4189852.95446  -3583524.24843  24504246.8914   24504245.8554
        39.2504         22.2504
 18  7 27  1 36 30.0000000  0 12G13G11G17G28G07G15G18G05G01G30G19G08
 -20644938.88548 -15999828.47045  21304034.6954   21304028.5234
        48.5004         35.2504
 -12476300.08346 -10732883.78344  23486356.4144   23486352.4654
        39.0004         25.0004
 -14875044.57447 -11573875.78745  22544734.5864   22544730.1804
        46.2504         34.7504
 -18691723.84747 -14553092.21746  20506723.4304   20506717.4264
        47.2504         37.7504
 -18474006.17147 -14377958.71745  22166994.1254   22166989.2704
        47.2504         31.5004
  -6096816.64546  -4663977.09443  24041666.7424   24041662.4224
        41.0004         23.0004
  -1676061.73345  -1191097.78242  24710122.1804   24710119.4414
        35.5004         16.2504
  -4085425.70246  -3157902.36042  24618288.1564   24618282.3834
        37.7504         16.7504
   -382357.96546   -274486.21343  25027569.6024   25027569.8954
        36.0004         19.2504
 -22729719.49348 -17611351.32547  20628571.4694   20628569.0824
        52.0004         43.5004
  -5396075.06946  -4161663.91043  24891733.0864   24891725.1844
        39.0004         23.0004
  -4095955.02846  -3510357.08243  24522115.3594   24522113.6094
        39.2504         22.7504
 18  7 27  1 37  0.0000000  0 12G13G11G17G28G07G15G18G05G01G30G19G08
 -20698403.90448 -16041489.53345  21293860.7344   21293855.5704
        48.7504         35.0004
 -12507198.62846 -10756960.60243  23480476.5634   23480472.1294
        38.7504         23.2504
 -14967068.36547 -11645582.63745  22527222.4304   22527218.3714
        44.5004         33.7504
 -18672099.58847 -14537800.59946  20510457.3524   20510451.9734
        47.7504         37.5004
 -18410826.81548 -14328728.10245  22179017.2734   22179010.9654
        48.0004         32.0004
  -6184185.84646  -4732056.96843  24025041.1644   24025036.2114
        41.5004         23.0004
  -1721572.65546  -1226560.80942  24701462.5784   24701458.5594
        36.0004         16.2504
  -4008018.91246  -3097585.37443  24633018.3834   24633013.6564
        38.5004         18.5004
   -452686.41445   -329287.60042  25014185.9384   25014184.6884
        35.7504         16.2504
 -22702828.71048 -17590397.46747  20633689.0314   20633686.4304
        51.7504         44.2504
  -5516570.12946  -4255556.19343  24868803.5234   24868796.1724
        37.0004         22.2504
  -4001775.69946  -3436970.65143  24540036.7424   24540035.1994
        39.0004         22.7504
 18  7 27  1 37 30.0000000  0 12G13G11G17G28G07G15G18G05G01G30G19G08
 -20751370.01548 -16082761.83845  21283781.5704   21283777.4184
        48.0004         35.0004
 -12537587.74746 -10780640.44043  23474694.6884   23474689.2934
        40.2504         23.7504
 -15058810.26747 -11717069.81945  22509763.9144   22509760.4534
        43.7504         33.0004
 -18652162.97247 -14522265.57446  20514251.8284   20514246.0204
        47.7504         37.0004
 -18347396.24647 -14279301.72845  22191087.3594   22191082.5164
        47.5004         32.0004
  -6271237.31946  -4799889.27843  24008475.1884   24008471.3754
        41.0004         22.7504
  -1766651.33346  -1261687.02642  24692884.8444   24692881.4964
        37.2504         16.2504
  -3930481.63546  -3037166.74942  24647773.9224   24647768.5124
        39.0004         17.7504
   -522791.33845   -383914.79842  25000846.6724   25000845.6524
        35.2504         16.7504
 -22675623.85548 -17569198.88947  20638865.9224   20638863.3674
        52.7504         44.2504
  -5637087.26645  -4349465.64643  24845869.4064   24845861.9844
        35.2504         19.7504
  -3907317.80246  -3363367.15743  24558011.8594   24558009.6454
        39.7504         22.5004
 18  7 27  1 38  0.0000000  0 12G13G11G17G28G07G15G18G05G01G30G19G08
 -20803834.53948 -16123643.28745  21273798.3134   21273793.9534
        49.0004         34.7504
 -12567465.25446 -10803921.62944  23469008.7814   23469003.4304
        41.2504         25.2504
 -15150267.54947 -11788335.22645  22492360.3054   22492355.9144
        44.0004         32.5004
 -18631915.19047 -14506488.09246  20518104.7584   20518099.1804
        47.5004         38.0004
 -18283714.16848 -14229679.34245  22203206.1724   22203200.0124
        49.0004         32.5004
  -6357968.31346  -4867471.86143  23991971.9614   23991967.1484
        41.5004         22.7504
  -1811294.79945  -1296474.07142  24684388.6094   24684385.7894
        35.0004         16.2504
  -3852817.03546  -2976648.89042  24662552.0784   24662547.9884
        38.7504         17.7504
   -592669.14646   -438365.00843  24987548.6484   24987548.5594
        37.2504         19.5004
 -22648104.34248 -17547755.11147  20644102.6334   20644100.3324
        52.5004         44.5004
  -5757623.85645  -4443390.25843  24822930.4774   24822923.2464
        33.0004         19.0004
  -3812583.25446  -3289548.03743  24576039.0314   24576037.4384
        37.5004         21.7504
 18  7 27  1 38 30.0000000  0 12G13G11G17G28G07G15G18G05G01G30G19G08
 -20855795.46148 -16164132.33845  21263910.0634   21263905.5004
        48.2504         34.2504
 -12596829.63646 -10826802.97144  23463421.3444   23463416.1484
        41.2504         24.2504
 -15241437.55447 -11859376.78745  22475011.1804   22475007.4654
        43.7504         31.2504
 -18611357.93947 -14490469.46146  20522016.5864   20522010.9534
        47.2504         37.5004
 -18219781.07748 -14179861.39045  22215371.7974   22215366.7814
        48.5004         32.0004
  -6444376.50747  -4934802.93644  23975528.6884   23975524.7424
        42.0004         24.0004
  -1855500.87446  -1330920.37442  24675977.1094   24675972.6884
        36.0004         14.7504
  -3775027.98746  -2916034.05843  24677355.4304   24677351.0314
        39.5004         18.5004
   -662316.97345   -492636.07743  24974294.8364   24974294.5554
        35.5004         19.0004
 -22620270.15748 -17526066.15047  20649399.2974   20649397.0234
        51.5004         43.7504
  -5878176.94345  -4537327.69843  24799991.1334   24799984.2584
        33.2504         18.5004
  -3717575.19846  -3215515.87043  24594118.2274   24594115.8284
        39.7504         21.7504
 18  7 27  1 39  0.0000000  0 12G13G11G17G28G07G15G18G05G01G30G19G08
 -20907250.52048 -16204227.20545  21254118.8524   21254112.8094
        48.0004         34.2504
 -12625678.71446 -10849282.76644  23457931.2894   23457926.8364
        41.2504         24.7504
 -15332317.77747 -11930192.52245  22457717.7424   22457713.2234
        43.7504         33.0004
 -18590492.34447 -14474210.56446  20525987.0474   20525981.5984
        47.5004         37.5004
 -18155596.84148 -14129847.72945  22227585.6094   22227580.8524
        48.2504         32.2504
  -6530459.37947  -5001880.48443  23959147.4384   23959143.0434
        42.0004         22.7504
  -1899266.64345  -1365023.56842  24667647.2194   24667644.0664
        34.0004         15.5004
  -3697117.41746  -2855324.53743  24692180.9614   24692177.1484
        39.0004         19.0004
   -731731.31246   -546725.12243  24961086.4534   24961085.5634
        36.5004         19.0004
 -22592120.60048 -17504131.44647  20654755.5234   20654753.3134
        51.0004         43.0004
  -5998743.58645  -4631275.71243  24777048.5084   24777040.9534
        34.0004         20.5004
  -3622296.33746  -3141272.64043  24612248.9064   24612246.7464
        38.5004         20.2504
 18  7 27  1 39 30.0000000  0 12G13G11G17G28G07G15G18G05G01G30G19G08
 -20958198.69948 -16243927.08845  21244423.5004   21244417.2234
        48.5004         33.7504
 -12654012.07147 -10871360.70644  23452540.2424   23452534.8244
        42.0004         25.5004
 -15422906.23747 -12000780.91045  22440478.9694   22440474.8404
        45.5004         33.5004
 -18569321.14847 -14457713.53446  20530015.8054   20530010.3484
        47.7504         37.5004
 -18091162.58048 -14079639.24945  22239847.3524   22239841.8874
        48.5004         31.0004
  -6616215.46146  -5068703.40343  23942828.6094   23942823.3284
        40.7504         22.5004
  -1942590.97445  -1398782.75842  24659404.6024   24659400.8014
        34.5004         16.7504
  -3619089.01346  -2794523.16142  24707029.9614   24707025.0784
        39.0004         17.2504
   -800910.32846   -600630.78043  24947921.8914   24947921.3134
        36.7504         20.0004
 -22563656.66248 -17481951.75846  20660171.8054   20660169.8094
        49.5004         41.7504
  -6119322.60146  -4725233.39343  24754102.6024   24754096.1454
        36.0004         22.2504
  -3526750.24746  -3066821.21543  24630431.3134   24630429.3134
        38.7504         21.2504
 18  7 27  1 40  0.0000000  0 12G13G11G17G28G07G15G18G05G01G30G19G08
 -21008637.19248 -16283229.81345  21234825.4774   21234819.5004
        48.5004         35.0004
 -12681826.47846 -10893034.28044  23447246.6954   23447242.0084
        40.7504         25.0004
 -15513199.29247 -12071139.13945  22423297.1414   22423292.4654
        46.0004         34.0004
 -18547844.33047 -14440978.35846  20534102.7894   20534097.3714
        47.7504         37.2504
 -18026477.25048 -14029235.13745  22252156.6724   22252151.6254
        48.7504         33.0004
  -6701641.07547  -5135268.79644  23926573.0394   23926568.0004
        43.0004         25.0004
  -1985470.27246  -1432195.15342  24651243.5864   24651241.5864
        36.7504         16.7504
  -3540944.91946  -2733631.70142  24721898.6174   24721894.7814
        37.5004         16.7504
   -869849.48646   -654349.60843  24934802.5314   24934802.8914
        36.2504         19.5004
 -22534876.91048 -17459525.98646  20665647.8444   20665646.2154
        48.5004         41.0004
  -6239909.98946  -4819197.63043  24731155.9844   24731148.4804
        37.2504         22.5004
  -3430938.65146  -2992162.87843  24648664.0004   24648661.5204
        40.0004         22.0004
 18  7 27  1 40 30.0000000  0 12G13G11G17G28G07G15G18G05G01G30G19G08
 -21058563.77848 -16322133.65645  21225324.8284   21225319.8364
        49.0004         35.5004
 -12709120.46146 -10914302.30844  23442052.9064   23442048.6644
        40.7504         24.0004
 -15603194.58847 -12141265.34045  22406171.2664   22406166.5084
        46.5004         32.5004
 -18526063.78447 -14424006.50646  20538247.4614   20538242.4844
        46.7504         37.5004
 -17961541.18448 -13978635.63545  22264513.4224   22264508.2424
        48.7504         32.2504
  -6786733.96247  -5201574.94344  23910380.1644   23910375.3054
        42.5004         24.5004
  -2027902.24845  -1465259.06742  24643170.5234   24643167.4964
        35.7504         16.2504
  -3462688.65546  -2672652.83342  24736791.1414   24736785.9264
        36.0004         14.7504
   -938546.02546   -707879.41243  24921730.7814   24921730.2854
        36.5004         19.0004
 -22505781.23848 -17436854.05346  20671183.9844   20671182.6254
        48.0004         40.0004
  -6360503.32846  -4913166.45143  24708207.9844   24708200.7234
        37.0004         22.7504
  -3334864.55446  -2917300.02843  24666946.2424   24666943.9344
        38.7504         22.2504
 18  7 27  1 41  0.0000000  0 12G13G11G17G28G07G15G18G05G01G30G19G08
 -21107976.28048 -16360636.91545  21215922.0084   21215917.2894
        49.0004         35.5004
 -12735891.93846 -10935163.21043  23436958.9064   23436953.3094
        40.7504         22.5004
 -15692889.43547 -12211157.45145  22389103.3524   22389097.5634
        46.0004         30.7504
 -18503980.96147 -14406799.12146  20542449.0314   20542444.4344
        47.0004         37.7504
 -17896354.80348 -13927841.08845  22276918.2734   22276913.3714
        48.0004         32.2504
  -6871491.74847  -5267619.98343  23894251.9064   23894246.5984
        43.0004         22.7504
  -2069884.24546  -1497972.29343  24635180.7424   24635177.2034
        37.5004         18.2504
  -3384322.52845  -2611588.35542  24751701.8754   24751697.3284
        33.5004         14.7504
  -1006996.63245   -761217.51642  24908704.1804   24908703.9064
        34.5004         16.2504
 -22476369.19247 -17413935.60446  20676780.9614   20676779.5044
        47.5004         39.7504
  -6481099.67946  -5007137.67443  24685259.7424   24685252.1024
        37.0004         22.5004
  -3238530.21546  -2842234.33743  24685278.4384   24685275.4064
        40.0004         22.0004
 18  7 27  1 41 30.0000000  0 12G13G11G17G28G07G15G18G05G01G30G19G08
 -21156873.24348 -16398738.45145  21206616.8284   21206612.0354
        48.7504         35.5004
 -12762140.15046 -10955616.37344  23431963.6094   23431958.2274
        40.0004         24.2504
 -15782282.31847 -12280814.27645  22372092.4304   22372086.7194
        46.0004         32.2504
 -18481597.75647 -14389357.67346  20546708.7664   20546704.0634
        47.0004         37.2504
 -17830918.20348 -13876851.56745  22289370.1414   22289365.4844
        48.2504         31.5004
  -6955912.14447  -5333402.08544  23878186.7114   23878182.0434
        43.0004         25.5004
  -2111414.55146  -1530333.53042  24627278.6644   24627274.7934
        36.5004         17.2504
  -3305850.74246  -2550441.40342  24766635.8054   24766630.3594
        37.0004         16.2504
  -1075198.61045   -814361.84943  24895726.5314   24895726.1804
        35.2504         18.5004
 -22446641.09247 -17390770.88446  20682438.1254   20682436.9104
        47.2504         38.7504
  -6601697.09746  -5101109.69643  24662310.3594   24662302.1174
        37.0004         21.2504
  -3141939.18946  -2766968.63843  24703658.4844   24703656.2154
        38.5004         19.5004
 18  7 27  1 42  0.0000000  0 12G13G11G17G28G07G15G18G05G01G30G19G08
 -21205252.23448 -16436436.36246  21197410.7814   21197405.6724
        49.2504         36.0004
 -12787863.00446 -10975660.14143  23427068.5084   23427063.5864
        40.2504         22.7504
 -15871369.62447 -12350232.98245  22355139.5784   22355133.9304
        46.7504         32.0004
 -18458915.49747 -14371683.19246  20551024.5704   20551020.0044
        47.0004         37.7504
 -17765231.74048 -13825667.32745  22301870.1414   22301865.0084
        48.0004         31.2504
  -7039992.38847  -5398919.18244  23862187.3914   23862181.9304
        42.5004         25.2504
  -2152490.42046  -1562340.67342  24619462.6094   24619458.2154
        37.5004         17.2504
  -3227275.67046  -2489214.09042  24781588.2274   24781582.3444
        36.0004         14.7504
  -1143148.64745   -867309.88843  24882795.2664   24882795.3404
        34.2504         18.2504
 -22416596.34448 -17367359.40946  20688155.8984   20688153.9224
        49.5004         39.5004
  -6722292.44046  -5195080.13143  24639362.5704   24639353.8484
        37.5004         21.5004
  -3045093.51946  -2691504.55143  24722088.4304   24722084.9574
        37.0004         18.2504
 18  7 27  1 42 30.0000000  0 12G13G11G17G28G07G15G18G05G01G30G19G08
 -21253111.32648 -16473729.16946  21188303.5944   21188298.6174
        49.5004         36.0004
 -12813058.37746 -10995292.89944  23422273.2894   23422268.7384
        39.7504         24.5004
 -15960149.25247 -12419411.91645  22338244.9774   22338240.4304
        45.0004         32.5004
 -18435935.09247 -14353776.39346  20555398.1254   20555393.1844
        47.0004         38.2504
 -17699295.38147 -13774288.36245  22314417.3364   22314413.1054
        47.7504         32.0004
  -7123730.32647  -5464169.49944  23846252.0784   23846247.6134
        42.7504         24.5004
  -2193109.24246  -1593991.72342  24611732.5784   24611728.7814
        36.7504         17.7504
  -3148600.22546  -2427908.63442  24796560.0784   24796553.7974
        37.5004         16.7504
  -1210843.31645   -920058.98342  24869914.1254   24869913.1994
        34.0004         17.7504
 -22386234.52848 -17343700.87446  20693933.9064   20693931.4774
        49.0004         40.7504
  -6842882.98046  -5289046.80943  24616414.6254   24616407.3834
        38.2504         22.0004
  -2947995.88345  -2615844.14542  24740565.9534   24740561.8324
        34.7504         17.7504
 18  7 27  1 43  0.0000000  0 12G13G11G17G28G07G15G18G05G01G30G19G08
 -21300448.48348 -16510615.25846  21179295.4614   21179291.1884
        48.7504         36.7504
 -12837724.88046 -11014513.55743  23417580.5704   23417575.5124
        40.2504         23.2504
 -16048618.11347 -12488348.67245  22321410.0784   22321405.4064
        44.2504         32.5004
 -18412658.29047 -14335638.61846  20559827.8444   20559822.1644
        47.0004         38.0004
 -17633109.03647 -13722714.62045  22327011.9144   22327008.0784
        47.7504         32.0004
  -7207123.41147  -5529151.10344  23830383.1884   23830378.1604
        42.0004         27.0004
  -2233268.74546  -1625284.79442  24604090.6884   24604087.2074
        38.0004         17.7504
  -3069826.98946  -2366526.78742  24811550.3594   24811543.7274
        37.5004         14.7504
  -1278279.64246   -972606.73543  24857080.8674   24857080.3094
        36.2504         18.2504
 -22355555.42248 -17319795.07746  20699772.2974   20699769.4964
        50.0004         41.0004
  -6963465.93646  -5383007.60143  24593469.0164   24593461.0354
        38.5004         22.7504
  -2850648.95145  -2539989.46242  24759090.1484   24759087.0704
        34.2504         17.7504
 18  7 27  1 43 30.0000000  0 12G13G11G17G28G07G15G18G05G01G30G19G08
 -21347261.31748 -16547092.80346  21170387.4774   21170383.0274
        49.0004         37.0004
 -12861860.42146 -11033320.49943  23412987.3594   23412982.4884
        40.5004         23.5004
 -16136773.51847 -12557041.19645  22304634.7274   22304630.0554
        45.0004         32.0004
 -18389086.33347 -14317270.85746  20564313.0394   20564307.5594
        46.5004         37.2504
 -17566672.34048 -13670945.78245  22339654.7584   22339649.7234
        48.2504         31.5004
  -7290168.56347  -5593861.60344  23814580.3134   23814575.2424
        43.0004         24.2504
  -2272966.27046  -1656217.95842  24596535.0004   24596532.8834
        37.0004         17.2504
  -2990958.78146  -2305071.10342  24826558.9304   24826551.4184
        37.0004         15.5004
  -1345454.09945  -1024950.45842  24844298.0784   24844297.4774
        35.0004         17.7504
 -22324558.53148 -17295641.67446  20705670.8984   20705668.1844
        50.0004         41.5004
  -7084038.25546  -5476960.07843  24570524.2194   24570516.7154
        38.5004         22.5004
  -2753055.28645  -2463942.53542  24777661.6254   24777658.8444
        35.2504         17.7504
 18  7 27  1 44  0.0000000  0 12G13G11G17G28G07G15G18G05G01G30G19G08
 -21393548.36648 -16583160.64446  21161579.0474   21161575.3754
        49.0004         36.5004
 -12885464.11346 -11051712.97844  23408495.6094   23408490.5474
        41.0004         24.0004
 -16224613.48047 -12625487.92445  22287919.2034   22287914.8324
        44.0004         32.2504
 -18365221.50947 -14298674.88346  20568854.4614   20568848.9454
        47.7504         37.2504
 -17499986.52648 -13618982.83745  22352344.3834   22352340.1414
        48.0004         32.2504
  -7372863.90747  -5658299.52044  23798843.7424   23798838.7974
        42.7504         25.5004
  -2312200.30645  -1686789.92142  24589068.9304   24589066.6454
        35.5004         16.7504
  -2911999.77146  -2243544.55742  24841583.3364   24841576.1134
        37.0004         14.7504
  -1412364.32045  -1077088.28142  24831565.5864   24831564.8674
        34.5004         17.2504
 -22293244.15948 -17271240.87046  20711630.0474   20711627.0904
        50.5004         41.7504
  -7204597.46846  -5570902.34243  24547583.3674   24547575.8524
        38.5004         22.7504
  -2655218.33145  -2387705.97842  24796278.5004   24796276.8164
        35.0004         16.2504
 18  7 27  1 44 30.0000000  0 12G13G11G17G28G07G15G18G05G01G30G19G08
 -21439307.75448 -16618817.30946  21152871.5084   21152866.9924
        49.0004         36.0004
 -12908534.01646 -11069689.53543  23404105.7734   23404100.8954
        40.5004         23.0004
 -16312135.32847 -12693686.75845  22271264.3284   22271259.9774
        44.0004         32.5004
 -18341064.93247 -14279851.58846  20573451.3834   20573445.7234
        47.5004         37.5004
 -17433051.55847 -13566825.75545  22365081.2194   22365076.7664
        47.7504         31.5004
  -7455207.27647  -5722463.15944  23783174.2894   23783168.7384
        43.0004         26.0004
  -2350967.88046  -1716998.40742  24581692.4614   24581689.3054
        36.2504         17.2504
  -2832951.91146  -2181948.90942  24856626.7274   24856618.4344
        40.2504         16.2504
  -1479006.92345  -1129017.54943  24818883.3284   24818883.1994
        34.5004         18.2504
 -22261611.85648 -17246592.33547  20717649.1954   20717646.4304
        52.2504         42.5004
  -7325141.29246  -5664832.64443  24524643.9694   24524636.8954
        38.7504         22.2504
  -2557140.47345  -2311281.75642  24814942.1644   24814940.2974
        34.2504         16.2504
 18  7 27  1 45  0.0000000  0 12G13G11G17G28G07G15G18G05G01G30G19G08
 -21484536.85448 -16654060.75746  21144265.2274   21144259.7464
        49.5004         37.2504
 -12931068.18147 -11087248.61843  23399817.6414   23399812.7624
        42.0004         22.0004
 -16399336.31447 -12761635.57445  22254670.2734   22254666.6214
        44.5004         34.0004
 -18316617.14648 -14260801.36146  20578103.9534   20578098.1884
        48.0004         37.5004
 -17365866.94347 -13514474.15145  22377866.5394   22377861.2894
        47.2504         31.0004
  -7537195.24747  -5786349.87444  23767572.5784   23767566.7894
        42.7504         25.2504
  -2389266.64945  -1746841.62942  24574404.1804   24574402.3364
        35.2504         16.2504
  -2753818.70446  -2120286.62942  24871685.7504   24871678.6294
        39.0004         15.5004
  -1545378.01945  -1180735.23643  24806253.3594   24806253.4454
        34.7504         19.0004
 -22229660.69848 -17221695.32947  20723729.5634   20723726.8204
        51.5004         42.7504
  -7445665.99146  -5758748.01444  24501708.8444   24501701.7894
        40.0004         24.2504
  -2458823.52845  -2234671.34042  24833650.6174   24833647.9694
        32.2504         14.7504
 18  7 27  1 45 30.0000000  0 12G13G11G17G28G07G15G18G05G01G30G19G08
 -21529234.34048 -16688889.97146  21135758.7894   21135754.4064
        49.5004         36.7504
 -12953065.86546 -11104389.67143  23395631.4924   23395626.0314
        41.5004         22.7504
 -16486214.30647 -12829332.69645  22238138.4144   22238134.4454
        46.2504         35.5004
 -18291880.74147 -14241526.24546  20582810.4454   20582805.4414
        47.5004         36.5004
 -17298433.31847 -13461928.50145  22390699.0234   22390693.8444
        47.0004         31.2504
  -7618826.40947  -5849958.55844  23752038.6564   23752033.1914
        44.0004         24.7504
  -2427094.64146  -1776317.95842  24567205.2194   24567204.0784
        36.0004         17.2504
  -2674603.40546  -2058560.41642  24886759.2974   24886752.7894
        39.5004         16.2504
  -1611475.40245  -1232239.64343  24793674.3524   24793674.1684
        34.5004         19.2504
 -22197391.29748 -17196550.35247  20729870.0234   20729867.7304
        51.2504         42.2504
  -7566169.80246  -5852647.11444  24478777.0164   24478770.8284
        39.2504         24.5004
  -2360271.34845  -2157877.47142  24852405.7814   24852403.4574
        33.7504         14.7504
 18  7 27  1 46  0.0000000  0 12G13G11G17G28G07G15G18G05G01G30G19G08
 -21573397.74448 -16723303.02146  21127355.1024   21127351.3244
        49.0004         36.7504
 -12974524.74547 -11121110.87043  23391547.7584   23391541.9414
        42.2504         22.0004
 -16572766.16547 -12896775.69845  22221668.2274   22221663.4964
        46.0004         34.7504
 -18266856.55847 -14222026.88046  20587572.2974   20587566.9184
        46.5004         37.5004
 -17230750.30247 -13409188.53645  22403578.7584   22403573.1484
        46.5004         30.5004
  -7700097.35647  -5913286.56544  23736573.3054   23736568.0864
        43.5004         25.0004
  -2464449.13045  -1805425.35642  24560098.1644   24560095.0124
        35.7504         16.7504
  -2595307.85646  -1996771.65842  24901848.3134   24901841.8754
        38.2504         14.7504
  -1677295.27445  -1283527.84843  24781151.3134   24781150.4494
        34.2504         19.0004
 -22164802.53748 -17171156.52547  20736071.4924   20736069.0084
        50.2504         42.5004
  -7686649.56546  -5946527.49044  24455851.1484   24455844.2464
        40.0004         25.7504
  -2261485.87545  -2080901.85542  24871203.4224   24871202.1134
        32.2504         14.7504
 18  7 27  1 46 30.0000000  0 12G13G11G17G28G07G15G18G05G01G30G19G08
 -21617023.61848 -16757297.20646  21119053.0864   21119048.8754
        49.0004         36.5004
 -12995441.79546 -11137409.86743  23387567.2584   23387562.2034
        40.7504         22.2504
 -16658987.99447 -12963961.54045  22205260.7894   22205256.1994
        46.7504         34.5004
 -18241544.70847 -14202303.35946  20592389.0784   20592384.0084
        46.7504         37.0004
 -17162817.23347 -13356253.70045  22416505.1094   22416500.6134
        46.5004         30.2504
  -7781004.55847  -5976331.17744  23721176.5944   23721171.1844
        43.0004         24.0004
  -2501326.42446  -1834160.84342  24553080.5234   24553076.7194
        37.0004         17.2504
  -2515933.87846  -1934921.81742  24916952.7274   24916946.5984
        36.7504         14.7504
  -1742833.04545  -1334596.20942  24768678.5004   24768678.4734
        33.5004         17.2504
 -22131892.96448 -17145512.72046  20742333.9304   20742331.6884
        50.2504         41.2504
  -7807100.65346  -6040385.48644  24432929.3204   24432923.7584
        38.2504         24.0004
                                  24890045.039
        30.500
 18  7 27  1 47  0.0000000  0 12G13G11G17G28G07G15G18G05G01G30G19G08
 -21660113.92248 -16790874.06046  21110853.4534   21110847.9924
        49.5004         36.2504
 -13015818.98946 -11153288.20343  23383689.5944   23383685.0314
        40.5004         22.7504
 -16744880.82747 -13030891.03145  22188915.5234   22188910.8754
        46.5004         33.7504
 -18215949.90547 -14182359.36946  20597259.7504   20597254.6914
        46.5004         37.2504
 -17094637.31947 -13303126.54345  22429480.0164   22429474.5274
        46.5004         30.7504
  -7861548.88947  -6039092.97344  23705849.6174   23705844.9184
        43.5004         26.0004
  -2537727.91046  -1862525.62742  24546153.2814   24546149.9574
        37.5004         16.7504
  -2436488.06346  -1873015.99142  24932070.2664   24932065.0864
        37.2504         16.2504
  -1808089.21045  -1385445.12243  24756258.3754   24756259.3674
        33.5004         18.2504
 -22098665.80648 -17119621.45146  20748656.6954   20748654.8164
        51.2504         41.2504
  -7927523.68946  -6134221.62243  24410013.2974   24410007.2424
        37.0004         22.0004
                                  24908931.148
        28.000
 18  7 27  1 47 30.0000000  0 11G13G11G17G28G07G15G18G05G01G30G19
 -21702665.35648 -16824031.02345  21102756.3284   21102752.0084
        48.5004         35.7504
 -13035653.35146 -11168743.58243  23379915.1414   23379910.5634
        41.5004         22.5004
 -16830440.66047 -13097561.03545  22172634.0634   22172629.5204
        47.5004         33.5004
 -18190072.20047 -14162194.94046  20602183.7114   20602178.7464
        46.7504         37.2504
 -17026209.34747 -13249806.06045  22442501.1174   22442496.3554
        47.7504         31.2504
  -7941726.77547  -6101569.23243  23690592.2344   23690586.9454
        42.7504         23.0004
  -2573650.00146  -1890516.93442  24539317.2114   24539314.4844
        37.0004         15.5004
  -2356971.69245  -1811055.24942  24947201.3594   24947196.8054
        35.0004         16.7504
  -1873059.32845  -1436071.15742  24743897.9774   24743897.8594
        34.2504         17.7504
 -22065119.51548 -17093481.51746  20755040.1254   20755038.4774
        49.7504         41.0004
  -8047914.74446  -6228032.81443  24387103.8054   24387098.0354
        36.0004         20.7504
 18  7 27  1 48  0.0000000  0 11G13G11G17G28G07G15G18G05G01G30G19
 -21744675.65548 -16856766.32845  21094762.1254   21094757.2734
        48.7504         35.7504
 -13054943.07247 -11183774.54143  23376244.5704   23376239.7894
        42.7504         22.5004
 -16915664.63047 -13163969.33245  22156416.2664   22156411.7194
        47.0004         33.5004
 -18163912.76747 -14141810.98046  20607161.9614   20607156.9534
        46.5004         37.0004
 -16957533.05847 -13196292.11145  22455570.1884   22455565.3484
        47.5004         30.0004
  -8021535.13647  -6163757.55644  23675405.3204   23675401.0744
        43.5004         26.0004
  -2609090.01746  -1918132.48342  24532573.4304   24532570.2854
        38.2504         16.7504
  -2277387.71545  -1749041.72942  24962345.3134   24962341.0744
        33.2504         15.5004
  -1937739.82545  -1486471.47543  24731587.4614   24731588.3754
        35.2504         18.2504
 -22031253.41548 -17067092.37546  20761484.3054   20761482.8914
        49.2504         39.7504
  -8168270.67546  -6321816.59443  24364202.4144   24364194.1804
        36.2504         19.5004
 18  7 27  1 48 30.0000000  0 11G13G11G17G28G07G15G18G05G01G30G19
 -21786142.75148 -16889078.34745  21086871.1954   21086866.4964
        48.7504         35.5004
 -13073686.99947 -11198380.19944  23372678.0864   23372672.7074
        42.5004         24.5004
 -17000550.34647 -13230114.06645  22140263.5004   22140258.7464
        46.2504         33.5004
 -18137473.05647 -14121208.62646  20612193.2734   20612188.1604
        47.0004         36.5004
 -16888608.77747 -13142584.91945  22468686.3524   22468680.6334
        47.7504         30.5004
  -8100971.69747  -6225656.16644  23660289.2734   23660284.7544
        43.7504         25.7504
  -2644045.69146  -1945370.67342  24525922.8444   24525918.9104
        36.5004         17.2504
 -22678198.79155 -17645777.66852  24977499.6884   24977496.8914
        31.5004         14.7504
  -2002127.44146  -1536643.65643  24719337.3594   24719336.6844
        36.0004         19.0004
 -21997067.09448 -17040453.71446  20767989.5314   20767987.9304
        48.5004         39.0004
  -8288588.77046  -6415570.97643  24341305.4614   24341297.9924
        39.2504         21.5004
 18  7 27  1 49  0.0000000  0 11G13G11G17G28G07G15G18G05G01G30G19
 -21827065.27548 -16920966.02446  21079083.5634   21079078.9024
        49.0004         36.2504
 -13091884.15446 -11212559.82343  23369215.1484   23369210.1604
        41.2504         22.5004
 -17085095.68947 -13295993.54445  22124174.8444   22124170.0474
        47.0004         33.5004
 -18110754.94747 -14100389.32746  20617277.7424   20617272.1024
        46.2504         37.2504
 -16819437.08648 -13088684.92345  22481849.1024   22481843.9064
        48.5004         30.7504
  -8180034.29847  -6287263.39744  23645244.0004   23645239.6254
        43.7504         26.7504
  -2678515.07446  -1972229.91442  24519361.7664   24519358.7384
        36.7504         17.2504
 -22598488.57145 -17583665.83542  24992668.5864   24992665.6454
        32.0004         14.7504
  -2066219.66445  -1586585.59143  24707140.8054   24707140.6684
        35.5004         18.5004
 -21962560.81348 -17013565.74146  20774555.8364   20774553.9494
        49.0004         39.2504
  -8408866.77046  -6509294.16843  24318418.4144   24318408.8554
        41.5004         20.0004
 18  7 27  1 49 30.0000000  0 11G13G11G17G28G07G15G18G05G01G30G19
 -21867441.44548 -16952427.98046  21071400.9224   21071395.5354
        49.5004         37.2504
 -13109533.06647 -11226312.21143  23365856.4534   23365851.0594
        42.0004         23.0004
 -17169298.10047 -13361605.81245  22108152.2584   22108147.4844
        47.0004         34.0004
 -18083759.95847 -14079354.27246  20622414.5394   20622409.2114
        45.5004         36.0004
 -16750018.33147 -13034592.42145  22495058.8674   22495053.7344
        47.0004         30.2504
  -8258720.50047  -6348577.29844  23630270.6954   23630265.5784
        43.5004         26.7504
  -2712496.41246  -1998708.80943  24512895.5554   24512892.6174
        37.2504         19.0004
 -22518719.551 5                  25007849.359
        33.250
  -2130013.32746  -1636294.89543  24695001.7274   24695001.1374
        36.0004         19.2504
 -21927734.40948 -16986428.29746  20781183.3914   20781181.0004
        49.0004         39.0004
  -8529101.50447  -6602983.68943  24295538.3054   24295528.2304
        43.0004         21.2504
 18  7 27  1 50  0.0000000  0 11G13G11G17G28G07G15G18G05G01G30G19
 -21907269.34248 -16983462.70946  21063821.6414   21063816.7584
        50.0004         36.2504
 -13126631.85346 -11239635.95344  23362602.7424   23362598.0314
        41.5004         25.0004
 -17253154.89747 -13426948.77045  22092194.0234   22092189.2384
        47.0004         34.0004
 -18056489.03947 -14058104.20746  20627604.1334   20627598.6884
        46.2504         36.7504
 -16680352.41947 -12980307.31945  22508316.0634   22508310.6214
        47.2504         30.5004
  -8337027.86447  -6409596.02544  23615369.6724   23615364.0664
        43.7504         26.0004
  -2745987.13246  -2024805.50843  24506522.5164   24506519.9224
        37.0004         19.0004
 -22438894.651 5                  25023041.461
        35.000
  -2193505.19546  -1685769.04543  24682919.2344   24682919.1804
        36.5004         19.7504
 -21892587.36048 -16959040.99146  20787871.8984   20787868.6024
        49.7504         40.0004
  -8649289.83247  -6696637.00843  24272667.8204   24272658.6214
        43.0004         23.0004
 18  7 27  1 50 30.0000000  0 11G13G11G17G28G07G15G18G05G01G30G19
 -21946547.29248 -17014068.90746  21056347.4224   21056342.7584
        48.7504         36.7504
 -13143179.49446 -11252530.21644  23359454.0004   23359448.9184
        41.7504         24.7504
 -17336663.84947 -13492020.69045  22076303.9224   22076298.2734
        47.0004         35.2504
 -18028944.29747 -14036640.76946  20632845.6644   20632840.3794
        46.2504         36.5004
 -16610439.60647 -12925829.82445  22521619.5784   22521615.5554
        46.7504         30.5004
  -8414954.12647  -6470317.81344  23600539.8284   23600534.4774
        43.5004         25.0004
  -2778985.44545  -2050518.47442  24500242.9384   24500239.8634
        35.7504         16.2504
 -22359017.034 6                  25038241.172
        36.250
  -2256692.29346  -1735005.69643  24670895.4454   24670895.0904
        36.5004         20.2504
 -21857119.60248 -16931403.78146  20794621.8284   20794617.8134
        50.0004         40.0004
  -8769429.21947  -6790252.15744  24249805.5784   24249797.4844
        43.0004         26.5004
 18  7 27  1 51  0.0000000  0 11G13G11G17G28G07G15G18G05G01G30G19
 -21985273.25448 -17044244.98746  21048977.7114   21048973.3754
        49.0004         36.7504
 -13159174.15047 -11264993.60244  23356410.0864   23356405.8794
        42.7504         24.2504
 -17419822.30348 -13556819.50245  22060479.3284   22060473.5164
        49.0004         34.7504
 -18001126.67947 -14014964.71846  20638139.1484   20638133.7894
        45.7504         36.0004
 -16540279.99647 -12871160.02545  22534970.9614   22534966.6524
        47.0004         30.7504
  -8492496.70747  -6530740.58644  23585784.7504   23585779.7734
        44.2504         25.2504
  -2811488.79245  -2075845.79742  24494057.8444   24494054.8014
        35.2504         17.2504
 -22279089.033 5                  25053450.953
        35.250
  -2319571.29946  -1784002.32143  24658930.4844   24658929.4774
        36.0004         20.2504
 -21821330.74248 -16903516.35846  20801432.2504   20801428.2194
        51.7504         40.0004
  -8889516.90246  -6883827.00144  24226953.6334   24226946.2194
        41.2504         26.0004
 18  7 27  1 51 30.0000000  0 11G13G11G17G28G07G15G18G05G01G30G19
 -22023445.37148 -17073989.49646  21041713.9534   21041709.3674
        48.5004         36.7504
 -13174614.90347 -11277025.34044  23353472.6174   23353467.9144
        42.5004         24.2504
 -17502627.88647 -13621343.34945  22044721.5164   22044716.5864
        47.5004         35.5004
 -17973037.53347 -13993077.08246  20643484.2974   20643478.7934
        45.7504         36.0004
 -16469873.62647 -12816297.95745  22548368.5864   22548364.4884
        47.0004         30.2504
  -8569653.10747  -6590862.47344  23571102.0164   23571096.8594
        44.7504         25.2504
  -2843495.30246  -2100785.91742  24487968.3204   24487963.9774
        36.0004         17.2504
 -22199113.992 6                  25068669.281
        37.500
  -2382139.12146  -1832756.44243  24647023.4384   24647022.4884
        36.5004         19.2504
 -21785220.43948 -16875378.45446  20808304.0944   20808300.0394
        50.7504         41.0004
  -9009550.01346  -6977359.32244  24204112.3054   24204104.3874
        39.7504         26.2504
 18  7 27  1 52  0.0000000  0 11G13G11G17G28G07G15G18G05G01G30G19
 -22061062.37148 -17103301.44946  21034555.5554   21034551.0944
        48.5004         37.2504
 -13189500.77747 -11288624.72944  23350639.5704   23350635.1914
        42.7504         26.0004
 -17585078.10547 -13685590.27746  22029031.9384   22029027.8954
        47.0004         37.2504
 -17944678.49247 -13970979.13146  20648880.8834   20648875.6054
        46.0004         36.5004
 -16399221.06947 -12761244.04745  22561813.4454   22561809.2544
        47.2504         30.5004
  -8646421.28147  -6650681.83044  23556493.5164   23556489.2384
        45.0004         27.2504
  -2875002.95445  -2125337.28942  24481971.8594   24481968.1094
        34.0004         16.2504
 -22119094.422 6                  25083898.078
        38.750
  -2444392.96245  -1881265.91343  24635176.4534   24635176.4064
        35.7504         19.5004
 -21748788.80048 -16846990.16946  20815236.9144   20815233.2544
        51.0004         41.0004
  -9129526.11546  -7070847.18344  24181280.1954   24181274.1684
        38.0004         24.7504
 18  7 27  1 52 30.0000000  0 11G13G11G17G28G07G15G18G05G01G30G19
 -22098122.01548 -17132179.09446  21027503.1024   21027498.5554
        48.5004         36.5004
 -13203829.75347 -11299790.16444  23347912.5704   23347908.3594
        43.5004         25.5004
 -17667170.21847 -13749558.14646  22013410.1254   22013406.2504
        47.0004         36.2504
 -17916050.76247 -13948671.81746  20654328.7424   20654323.1524
        46.2504         37.0004
 -16328322.42047 -12705998.36745  22575304.6094   22575301.1884
        47.0004         30.0004
  -8722798.20047  -6710196.29744  23541959.2504   23541953.6914
        44.5004         24.7504
  -2906009.19845  -2149497.96642  24476071.5554   24476067.6684
        35.2504         16.7504
 -22039033.769 6                  25099133.352
        38.000
  -2506329.35746  -1929528.00043  24623390.6094   24623390.4414
        36.2504         18.5004
 -21712035.15248 -16818350.95846  20822230.6334   20822227.5664
        50.7504         41.2504
  -9249441.45446  -7164287.70043  24158461.4694   24158455.2894
        37.0004         23.0004
 18  7 27  1 53  0.0000000  0 11G13G11G17G28G07G15G18G05G01G30G19
 -22134623.32348 -17160621.68046  21020556.9384   21020552.9024
        49.0004         36.7504
 -13217601.26647 -11310521.22244  23345292.6024   23345287.6644
        43.5004         25.0004
 -17748902.49747 -13813245.63646  21997856.4844   21997853.0554
        46.5004         36.0004
 -17887156.58647 -13926156.88146  20659827.2274   20659821.5084
        46.2504         37.0004
 -16257178.30947 -12650561.43745  22588843.0234   22588838.6804
        46.5004         30.2504
  -8798782.41047  -6769404.77644  23527499.8284   23527495.2814
        44.7504         27.0004
  -2936513.02346  -2173267.21443  24470267.8594   24470263.2034
        36.5004         18.2504
 -21958934.699 6                  25114375.031
        38.250
  -2567945.86345  -1977540.83543  24611666.3284   24611665.5634
        34.0004         20.2504
 -21674959.98048 -16789461.22447  20829286.0084   20829282.8634
        50.7504         42.0004
  -9369293.91646  -7257679.23343  24135654.6024   24135647.8554
        38.0004         22.7504
 18  7 27  1 53 30.0000000  0 11G13G11G17G28G07G15G18G05G01G30G19
 -22170564.42348 -17188627.73646  21013717.9924   21013713.2974
        48.2504         37.0004
 -13230813.59647 -11320816.53443  23342777.5234   23342773.6644
        42.0004         23.7504
 -17830272.29947 -13876650.66945  21982372.2424   21982368.2734
        46.5004         35.5004
 -17857996.78747 -13903434.97046  20665375.9924   20665370.7774
        46.2504         38.0004
 -16185788.40547 -12594932.97245  22602428.4224   22602423.6804
        46.5004         31.5004
  -8874371.05447  -6828305.02044  23513115.2814   23513110.9344
        45.0004         25.7504
  -2966511.84946  -2196642.93142  24464558.9384   24464555.5314
        36.7504         17.7504
 -21878799.672 6                  25129624.320
        36.250
  -2629239.02645  -2025301.67343  24600002.1484   24600000.8444
        35.0004         18.5004
 -21637562.62748 -16760320.44346  20836401.8524   20836399.7664
        50.5004         41.5004
  -9489080.54146  -7351019.46044  24112859.2194   24112852.8794
        37.5004         25.5004
 18  7 27  1 54  0.0000000  0 11G13G11G17G28G07G15G18G05G01G30G19
 -22205944.00148 -17216196.25246  21006985.4774   21006981.0474
        48.7504         36.5004
 -13243466.96647 -11330676.32143  23340370.1564   23340365.4264
        42.0004         23.0004
 -17911278.02847 -13939772.01345  21966957.7894   21966953.7424
        46.2504         35.0004
 -17828573.81847 -13880507.99346  20670975.3984   20670970.1134
        46.5004         38.0004
 -16114154.09547 -12539114.06045  22616059.8594   22616055.6414
        46.0004         30.5004
  -8949562.11747  -6886895.43944  23498807.3204   23498802.4144
        45.7504         25.7504
  -2996004.40545  -2219624.10742  24458946.5084   24458943.3054
        35.0004         16.7504
 -21798633.008 6                  25144880.188
        36.250
  -2690206.76345  -2072809.01343  24588400.2344   24588400.1994
        35.0004         19.2504
 -21599843.81848 -16730929.16546  20843579.2664   20843577.4574
        50.0004         41.0004
  -9608799.17146  -7444306.72944  24090078.4224   24090071.9104
        38.0004         25.2504
 18  7 27  1 54 30.0000000  0 11G13G11G17G28G07G15G18G05G01G30G19
 -22240759.72748 -17243325.39046  21000360.3444   21000355.5594
        48.2504         36.5004
 -13255558.73547 -11340098.47643  23338068.4614   23338064.7344
        42.2504         23.5004
 -17991915.97947 -14002606.78545  21951612.3674   21951608.6844
        46.5004         34.5004
 -17798888.06347 -13857376.24946  20676624.2194   20676619.0394
        46.2504         37.2504
 -16042274.46847 -12483103.98545  22629738.2974   22629734.0864
        46.5004         31.0004
  -9024353.39047  -6945174.34844  23484575.0704   23484570.6294
        44.5004         26.5004
  -3024987.90346  -2242208.66843  24453430.8204   24453427.7034
        36.0004         18.2504
 -21718436.343 5                  25160139.727
        34.000
  -2750844.78945  -2120059.35942  24576860.9144   24576860.4104
        35.0004         17.7504
 -21561802.20048 -16701286.37246  20850818.3054   20850816.5084
        50.5004         41.0004
  -9728445.90546  -7537537.97144  24067310.2584   24067303.7344
        39.0004         25.0004
 18  7 27  1 55  0.0000000  0 11G13G11G17G28G07G15G18G05G01G30G19
 -22275010.65348 -17270014.42646  20993842.3204   20993837.7464
        48.0004         36.5004
 -13267088.48447 -11349082.70943  23335874.5314   23335870.5204
        42.5004         22.5004
 -18072184.76247 -14065153.86745  21936337.9924   21936333.5864
        46.0004         35.2504
 -17768941.33147 -13834041.15146  20682322.5784   20682317.5664
        46.0004         37.0004
 -15970150.64947 -12426903.63145  22643462.8524   22643458.8014
        46.7504         30.2504
  -9098742.38947  -7003139.79844  23470419.3364   23470414.4534
        44.7504         26.0004
  -3053461.10546  -2264395.56842  24448011.8134   24448009.3954
        36.5004         16.2504
 -21638213.650 5                  25175406.328
        33.000
  -2811151.06445  -2167051.25343  24565383.3364   24565382.8484
        35.5004         18.2504
 -21523438.40148 -16671392.52346  20858118.5164   20858116.9774
        49.2504         40.5004
  -9848019.11046  -7630711.90644  24044556.3524   24044549.9574
        39.0004         26.0004
 18  7 27  1 55 30.0000000  0 11G13G11G17G28G07G15G18G05G01G30G19
 -22308694.63848 -17296261.69646  20987432.5004   20987427.8364
        48.5004         36.5004
 -13278054.46446 -11357627.65043  23333787.9384   23333783.5394
        41.5004         22.5004
 -18152081.58047 -14127411.12246  21921134.9454   21921130.0864
        46.7504         36.0004
 -17738734.70047 -13810503.51946  20688070.8204   20688065.6414
        44.5004         37.0004
 -15897782.27147 -12370512.71145  22657234.5084   22657229.8484
        46.0004         30.2504
  -9172726.42447  -7060789.70544  23456340.4144   23456336.1724
        45.0004         27.2504
  -3081421.58845  -2286182.97242  24442690.5314   24442688.3484
        34.0004         17.2504
 -21557966.218 5                  25190675.461
        31.500
  -2871121.99646  -2213781.80143  24553972.0634   24553972.0234
        36.0004         19.5004
 -21484751.74848 -16641247.10446  20865480.1334   20865478.6484
        48.7504         40.5004
  -9967514.74546  -7723825.40044  24021816.7344   24021810.2344
        40.0004         25.7504
 18  7 27  1 56  0.0000000  0 11G13G11G17G28G07G15G18G05G01G30G19
 -22341810.60248 -17322066.35546  20981130.7584   20981126.1334
        49.0004         37.0004
 -13288456.06846 -11365732.77643  23331808.1414   23331804.2934
        41.5004         22.5004
 -18231604.42547 -14189376.98345  21906001.8284   21905997.6644
        47.2504         35.0004
 -17708270.30247 -13786765.04046  20693868.5164   20693863.1524
        45.0004         36.7504
 -15825169.66147 -12313931.49944  22671052.4224   22671047.7464
        46.0004         29.5004
  -9246303.72847  -7118122.64644  23442339.6334   23442334.6724
        45.0004         26.0004
  -3108867.62046  -2307569.47942  24437468.6804   24437465.5234
        36.2504         17.2504
 -21477698.03415                  25205947.883
        30.500
  -2930754.91945  -2260248.96343  24542625.0234   24542624.0824
        35.2504         20.0004
 -21445742.39048 -16610850.21746  20872903.2584   20872902.2194
        48.5004         40.2504
 -10086930.65246  -7816876.78144  23999093.1484   23999085.7854
        39.5004         25.0004
 18  7 27  1 56 30.0000000  0 11G13G11G17G28G07G15G18G05G01G30G19
 -22374356.16848 -17347426.53846  20974937.3204   20974932.9414
        48.0004         37.2504
 -13298291.38346 -11373396.70343  23329936.6804   23329932.7154
        41.5004         22.5004
 -18310749.89347 -14251048.78645  21890940.7734   21890936.0204
        47.2504         35.2504
 -17677548.57547 -13762826.04146  20699714.3914   20699709.1054
        45.0004         36.5004
 -15752312.83947 -12257159.96744  22684916.0864   22684911.7544
        45.7504         29.2504
  -9319470.98747  -7175136.09844  23428416.7114   23428411.3094
        44.7504         26.2504
  -3135796.69546  -2328553.16242  24432344.5314   24432341.5204
        36.5004         16.7504
                                  25221229.844
        30.250
  -2990045.97745  -2306449.77443  24531341.8364   24531342.3054
        34.5004         19.2504
 -21406409.28848 -16580201.08146  20880388.1334   20880386.6684
        49.0004         39.2504
 -10206262.72446  -7909862.82343  23976384.3524   23976377.8404
        38.2504         23.7504
 18  7 27  1 57  0.0000000  0 11G13G11G17G28G07G15G18G05G01G30G19
 -22406330.86547 -17372341.89346  20968852.8914   20968848.5044
        47.5004         37.2504
 -13307560.87346 -11380619.66943  23328172.5394   23328168.6524
        41.5004         22.2504
 -18389517.30247 -14312425.99545  21875951.6644   21875947.3404
        47.0004         35.5004
 -17646572.20247 -13738688.62046  20705608.6644   20705603.4264
        45.7504         37.0004
 -15679213.39847 -12200199.38345  22698826.7424   22698822.4024
        44.7504         30.0004
  -9392227.30847  -7231829.32344  23414570.8524   23414566.2424
        44.7504         25.2504
  -3162208.34446  -2349133.67742  24427318.6954   24427315.1844
        36.5004         17.2504
                                  25236508.953
        29.000
  -3048993.68745  -2352383.00543  24520124.6884   24520124.7814
        35.2504         19.5004
 -21366753.73648 -16549300.66746  20887934.6884   20887932.9574
        50.0004         40.5004
 -10325509.93646  -8002782.75443  23953692.5944   23953686.0164
        38.0004         23.0004
 18  7 27  1 57 30.0000000  0 10G13G11G17G28G07G15G18G01G30G19
 -22437733.00547 -17396811.08646  20962877.6644   20962872.7774
        47.5004         37.7504
 -13316262.88646 -11387400.48143  23326516.8364   23326512.3204
        41.0004         23.0004
 -18467903.81647 -14373506.39746  21861035.3674   21861030.8594
        47.5004         36.2504
 -17615341.87647 -13714353.31046  20711552.0394   20711546.3674
        45.7504         36.7504
 -15605870.95447 -12143049.46145  22712783.3204   22712779.2734
        45.2504         30.5004
  -9464569.86747  -7288200.14444  23400804.2894   23400799.9574
        45.2504         26.2504
  -3188100.06346  -2369309.03142  24422390.9844   24422387.6024
        36.0004         16.2504
  -3107594.29946  -2398045.85743  24508972.7114   24508973.1294
        36.7504         18.2504
 -21326774.94648 -16518148.37946  20895542.7814   20895540.7154
        50.5004         40.7504
 -10444668.67146  -8095633.73343  23931017.9224   23931009.8714
        37.0004         22.7504
 18  7 27  1 58  0.0000000  0 10G13G11G17G28G07G15G18G01G30G19
 -22468561.03848 -17420832.93746  20957011.2114   20957006.5204
        48.2504         37.0004
 -13324396.50546 -11393738.35443  23324969.5554   23324964.8954
        41.5004         22.5004
 -18545907.19248 -14434288.24746  21846192.0474   21846187.3094
        48.0004         36.5004
 -17583859.67347 -13689821.72946  20717542.9454   20717537.4064
        46.5004         36.7504
 -15532285.91447 -12085710.49844  22726786.2194   22726782.4024
        45.7504         29.2504
  -9536496.50847  -7344246.88244  23387117.8834   23387112.7504
        44.7504         26.5004
  -3213470.38646  -2389078.08642  24417563.2274   24417560.6684
        36.0004         16.7504
  -3165845.16046  -2443436.11243  24497889.6954   24497888.5944
        37.2504         19.2504
 -21286472.99148 -16486744.26646  20903212.0314   20903209.8444
        49.7504         40.7504
 -10563736.42746  -8188413.81243  23908359.6644   23908352.7934
        37.5004         23.5004
 18  7 27  1 58 30.0000000  0 10G13G11G17G28G07G15G18G01G30G19
 -22498813.53547 -17444406.30946  20951254.0784   20951250.1644
        47.0004         37.2504
 -13331960.78246 -11399632.61143  23323530.0474   23323525.1214
        41.7504         23.5004
 -18623524.80548 -14494769.51946  21831422.4924   21831417.6334
        48.0004         36.0004
 -17552126.70347 -13665094.74146  20723581.4224   20723576.0744
        45.7504         36.7504
 -15458458.43947 -12028182.62944  22740834.6564   22740830.9654
        44.2504         29.2504
  -9608005.02247  -7399967.79544  23373510.0634   23373505.4654
        44.5004         27.0004
  -3238317.22446  -2408439.20842  24412835.6334   24412832.3094
        37.0004         16.2504
  -3223743.33146  -2488551.54843  24486871.0634   24486870.5394
        36.7504         20.0004
 -21245847.71048 -16455088.22346  20910942.8364   20910940.1914
        50.0004         40.5004
 -10682709.94346  -8281120.48944  23885720.7194   23885712.7814
        38.0004         26.0004
 18  7 27  1 59  0.0000000  0 10G13G11G17G28G07G15G18G01G30G19
 -22528489.46047 -17467530.40146  20945607.2034   20945602.7854
        46.0004         37.2504
 -13338954.83147 -11405082.53343  23322199.2584   23322194.6724
        42.2504         22.5004
 -18700754.93647 -14554948.85145  21816725.9224   21816720.8594
        47.7504         35.7504
 -17520144.60547 -13640173.64246  20729667.3364   20729662.1844
        46.0004         37.2504
 -15384389.22747 -11970466.38644  22754929.7344   22754926.6764
        43.5004         29.5004
  -9679093.35347  -7455361.31144  23359982.2424   23359977.7814
        45.5004         28.2504
  -3262639.17046  -2427391.37442  24408207.2344   24408204.5944
        36.0004         17.2504
  -3281285.91846  -2533389.91443  24475921.4144   24475920.6094
        37.5004         21.0004
 -21204899.08648 -16423180.20946  20918735.3524   20918732.5664
        50.0004         40.7504
 -10801586.87146  -8373751.86144  23863098.8364   23863092.0634
        38.7504         26.5004
 18  7 27  1 59 30.0000000  0 10G13G11G17G28G07G15G18G01G30G19
 -22557586.44947 -17490203.38146  20940070.1484   20940065.9144
        46.0004         37.5004
 -13345377.33147 -11410087.08944  23320977.2584   23320972.2664
        42.2504         25.5004
 -18777594.97047 -14614824.21145  21802103.1954   21802098.5634
        46.7504         35.7504
 -17487914.51747 -13615059.28946  20735800.5164   20735795.6454
        46.0004         38.2504
 -15310077.87947 -11912561.48844  22769070.8364   22769067.6374
        44.2504         29.7504
  -9749758.74247  -7510425.25544  23346534.7734   23346530.5434
        45.0004         28.0004
  -3286433.84745  -2445932.65942  24403678.2894   24403676.6134
        34.7504         16.2504
  -3338469.56246  -2577948.55943  24465039.6884   24465038.9654
        37.7504         20.5004
 -21163626.46848 -16391019.73446  20926589.2734   20926586.4344
        51.0004         40.0004
 -10920363.66246  -8466305.21144  23840496.0084   23840489.5514
        39.0004         28.0004
 18  7 27  2  0  0.0000000  0 10G13G11G17G28G07G15G18G01G30G19
 -22586104.20047 -17512425.01246  20934643.2584   20934638.7344
        47.0004         37.5004
 -13351228.34347 -11414646.31943  23319863.5314   23319859.3914
        42.5004         22.5004
 -18854043.18447 -14674394.26545  21787555.4384   21787551.1954
        47.5004         35.5004
 -17455438.92047 -13589753.64146  20741980.3204   20741975.5744
        46.0004         38.7504
 -15235525.97347 -11854469.13444  22783258.0784   22783254.3674
        44.2504         29.5004
  -9819999.65347  -7565158.41544  23333168.8364   23333164.4064
        45.7504         28.0004
  -3309700.47846  -2464062.50442  24399252.1564   24399248.9384
        36.0004         16.2504
  -3395292.24046  -2622225.98343  24454226.6564   24454225.5784
        38.0004         20.7504
 -21122030.67448 -16358607.44946  20934504.7664   20934501.7194
        51.2504         40.2504
 -11039038.59446  -8558779.19144  23817913.5634   23817907.1604
        39.2504         27.0004
 18  7 27  2  0 30.0000000  0 10G13G11G17G28G07G15G18G01G30G19
 -22614040.92447 -17534193.90346  20929326.7584   20929322.6914
        47.0004         37.5004
 -13356506.19447 -11418758.94743  23318859.4224   23318854.6414
        42.7504         22.7504
 -18930096.78447 -14733656.80145  21773082.1724   21773078.4344
        47.2504         35.5004
 -17422717.94347 -13564256.78846  20748207.3284   20748202.1684
        47.2504         37.7504
 -15160733.18247 -11796189.06844  22797490.2894   22797486.5234
        45.7504         29.0004
  -9889813.40447  -7619558.74944  23319883.7894   23319879.1374
        45.5004         27.5004
  -3332436.99245  -2481779.25942  24394924.5394   24394922.7384
        34.2504         16.7504
  -3451750.38346  -2666219.31243  24443483.2894   24443482.2734
        37.7504         20.7504
 -21080110.96948 -16325942.74146  20942481.5944   20942478.2814
        51.0004         39.7504
 -11157608.02846  -8651170.97044  23795350.0634   23795343.8244
        40.0004         26.5004
 18  7 27  2  1  0.0000000  0 10G13G11G17G28G07G15G18G01G30G19
 -22641394.65547 -17555508.51746  20924122.0864   20924117.0124
        47.2504         37.0004
 -13361210.07347 -11422424.31344  23317963.5704   23317959.7734
        42.0004         24.2504
 -19005753.56747 -14792610.11845  21758685.8364   21758681.2074
        46.0004         34.7504
 -17389753.04047 -13538569.86046  20754480.2894   20754475.2274
        47.2504         38.0004
 -15085699.54847 -11737721.35244  22811768.5864   22811765.1414
        46.0004         29.7504
  -9959197.44847  -7673624.23644  23306680.0634   23306675.7464
        45.7504         26.7504
  -3354640.95145  -2499081.05242  24390700.4614   24390696.7074
        35.2504         16.7504
  -3507840.97146  -2709926.26143  24432809.0474   24432808.3324
        36.5004         19.7504
 -21037866.98648 -16293025.35246  20950520.1644   20950517.2304
        50.7504         39.2504
 -11276068.51646  -8743477.84644  23772807.7114   23772800.8204
        39.7504         25.0004
 18  7 27  2  1 30.0000000  0 10G13G11G17G28G07G15G18G01G30G19
 -22668164.18148 -17576367.89946  20919027.8674   20919023.1454
        48.5004         37.0004
 -13365339.04347 -11425641.69644  23317178.6174   23317173.7464
        42.7504         24.5004
 -19081011.23848 -14851252.46546  21744365.0944   21744360.6214
        48.0004         36.0004
 -17356545.90747 -13512694.18846  20760799.6334   20760794.1454
        47.5004         37.7504
 -15010425.47247 -11679066.26744  22826092.2424   22826089.1804
        44.5004         28.5004
 -10028149.74747  -7727353.30344  23293558.8674   23293554.4304
        46.0004         28.0004
  -3376311.46245  -2515967.09742  24386576.5634   24386572.5474
        35.7504         17.7504
  -3563561.05246  -2753344.47543  24422205.9384   24422204.5164
        37.0004         19.0004
 -20995298.66448 -16259855.24746  20958620.9844   20958617.7584
        51.0004         39.5004
 -11394417.53246  -8835697.88443  23750286.6094   23750279.8054
        39.5004         23.7504
 18  7 27  2  2  0.0000000  0 10G13G11G17G28G07G15G18G01G30G19
 -22694348.86548 -17596771.54946  20914045.0554   20914040.6884
        48.5004         37.5004
 -13368892.70647 -11428410.79444  23316501.5784   23316497.1374
        42.5004         24.5004
 -19155867.77448 -14909582.24046  21730119.8284   21730115.6214
        48.5004         36.0004
 -17323098.32347 -13486631.15146  20767164.4454   20767158.7854
        46.5004         38.2504
 -14934911.80847 -11620224.49044  22840462.3834   22840459.1764
        44.5004         28.0004
 -10096668.43047  -7780744.48944  23280520.2734   23280515.9454
        45.5004         28.7504
  -3397447.06046  -2532436.39242  24382554.0704   24382550.8094
        37.0004         17.7504
  -3618908.39246  -2796472.26843  24411674.1484   24411672.3164
        39.0004         19.7504
 -20952406.46848 -16226432.76846  20966783.0784   20966780.6024
        50.7504         40.0004
 -11512652.66646  -8927829.17444  23727787.1644   23727780.4064
        38.7504         24.5004
 18  7 27  2  2 30.0000000  0 10G13G11G17G28G07G15G18G01G30G19
 -22719946.94647 -17616718.11946  20909174.4144   20909169.3134
        47.5004         38.0004
 -13371869.94247 -11430730.70543  23315936.0634   23315931.0904
        43.5004         23.0004
 -19230321.03448 -14967597.76746  21715952.2664   21715948.2304
        48.7504         36.2504
 -17289411.50947 -13460381.69046  20773574.4844   20773569.2304
        45.5004         37.7504
 -14859158.55647 -11561195.99444  22854877.7344   22854873.8984
        44.0004         27.5004
 -10164751.36147  -7833796.10344  23267564.6334   23267560.1094
        45.2504         29.0004
  -3418045.71546  -2548487.25043  24378634.4454   24378630.4654
        38.2504         18.2504
  -3673879.62446  -2839307.01743  24401212.7504   24401212.2704
        39.0004         21.0004
 -20909189.93448 -16192757.57346  20975006.7194   20975004.6454
        50.5004         40.5004
 -11630770.92246  -9019869.37144  23705310.0394   23705303.6484
        39.2504         24.0004
 18  7 27  2  3  0.0000000  0 10G13G11G17G28G07G15G18G01G30G19
 -22744957.66248 -17636206.99746  20904415.1644   20904409.8134
        48.2504         38.0004
 -13374270.99746 -11432601.67044  23315478.4924   23315474.2384
        41.5004         25.5004
 -19304369.25448 -15025297.66646  21701861.3674   21701857.1994
        48.0004         36.5004
 -17255487.25647 -13433947.21446  20780030.5634   20780023.9654
        46.5004         36.7504
 -14783166.72447 -11501981.62244  22869338.6414   22869335.2814
        45.0004         27.2504
 -10232396.56547  -7886506.64544  23254692.0474   23254687.7114
        45.7504         29.2504
  -3438106.50346  -2564118.99842  24374817.1484   24374813.6374
        38.5004         17.7504
  -3728472.48846  -2881846.91243  24390824.4064   24390823.4654
        39.0004         21.2504
 -20865649.46248 -16158829.95746  20983292.1094   20983290.8164
        50.0004         40.5004
 -11748769.74246  -9111816.46044  23682855.5394   23682849.1724
        40.7504         26.0004
 18  7 27  2  3 30.0000000  0 10G13G11G17G28G07G15G18G01G30G19
 -22769379.72448 -17655237.17946  20899767.7344   20899762.2234
        48.5004         37.7504
 -13376094.72246 -11434022.77244  23315132.0314   23315126.9534
        41.5004         25.2504
 -19378010.22648 -15082680.24246  21687847.7894   21687843.3444
        49.2504         37.0004
 -17221326.89447 -13407328.75446  20786530.6884   20786524.9064
        46.5004         37.5004
 -14706936.25547 -11442581.29244  22883845.5084   22883840.5554
        44.5004         27.5004
 -10299601.99647  -7938874.49944  23241903.6484   23241899.2344
        46.0004         28.7504
  -3457627.53446  -2579330.21542  24371101.5704   24371098.0434
        37.2504         17.2504
  -3782683.94346  -2924089.57743  24380508.1254   24380505.6524
        40.0004         19.7504
 -20821784.81448 -16124649.74846  20991639.3054   20991637.8634
        51.0004         41.5004
 -11866645.92147  -9203668.05344  23660425.0634   23660418.5784
        42.2504         29.0004
 18  7 27  2  4  0.0000000  0 10G13G11G17G28G07G15G18G01G30G19
 -22793211.80648 -17673807.63746  20895232.9304   20895227.3674
        49.2504         38.5004
 -13377340.14346 -11434993.24443  23314895.3834   23314890.0004
        40.0004         23.7504
 -19451241.86948 -15139743.86346  21673913.1484   21673908.1844
        50.7504         36.7504
 -17186931.79047 -13380527.38746  20793075.6804   20793070.5744
        47.5004         37.2504
 -14630467.70547 -11382995.44944  22898396.8444   22898391.9804
        44.2504         28.5004
 -10366365.16947  -7990897.73944  23229198.8524   23229195.0634
        46.2504         28.7504
  -3476607.35045  -2594119.63442  24367489.9844   24367486.7734
        35.5004         17.2504
  -3836511.16446  -2966032.86143  24370264.7504   24370263.3714
        38.0004         19.7504
 -20777595.87048 -16090216.83146  21000048.5944   21000046.8524
        50.5004         41.7504
 -11984396.54347  -9295421.80844  23638017.6024   23638011.1954
        42.5004         29.2504
 18  7 27  2  4 30.0000000  0 10G13G11G17G28G07G15G18G01G30G19
 -22816452.21548 -17691917.05446  20890810.2344   20890804.9414
        50.0004         38.5004
 -13378006.23447 -11435512.26043  23314768.8054   23314762.6604
        43.0004         23.2504
 -19524061.03848 -15196486.09146  21660056.5784   21660050.5864
        50.0004         36.0004
 -17152302.85747 -13353543.80446  20799665.3674   20799659.6804
        47.7504         37.5004
 -14553761.04847 -11323224.06444  22912994.6094   22912988.4804
        45.0004         27.7504
 -10432683.57247  -8042574.40944  23216579.2034   23216574.8754
        45.7504         29.5004
  -3495043.99045  -2608485.77642  24363981.1804   24363978.5904
        35.0004         17.2504
  -3889950.88046  -3007674.22043  24360096.2814   24360094.3404
        38.5004         20.0004
 -20733082.08848 -16055530.80047  21008519.2274   21008517.7304
        51.5004         42.0004
 -12102018.47947  -9387075.28644  23615635.2584   23615628.6954
        42.5004         28.7504
 18  7 27  2  5  0.0000000  0 10G13G11G17G28G07G15G18G01G30G19
 -22839100.09148 -17709564.75446  20886500.2034   20886495.5784
        49.7504         38.0004
 -13378092.48246 -11435579.47444  23314751.9144   23314747.1684
        41.5004         24.2504
 -19596466.12948 -15252905.65146  21646277.1954   21646271.8754
        49.2504         36.0004
 -17117441.73648 -13326379.30246  20806299.3914   20806293.7274
        48.0004         37.2504
 -14476816.83247 -11263267.56344  22927635.2814   22927631.2814
        43.5004         28.5004
 -10498555.33847  -8093903.05144  23204043.5164   23204039.1724
        45.5004         29.0004
  -3512936.16945  -2622427.66542  24360576.3594   24360573.8674
        35.7504         17.2504
  -3943000.37946  -3049011.47643  24350000.4304   24349999.9064
        37.7504         20.2504
 -20688243.61048 -16020591.74547  21017051.7504   21017050.6334
        51.7504         42.7504
 -12219508.69247  -9478626.10344  23593277.5944   23593270.3244
        43.0004         27.2504
 18  7 27  2  5 30.0000000  0 10G13G11G17G28G07G15G18G01G30G19
 -22861154.31248 -17726749.87246  20882303.2034   20882298.4574
        50.0004         38.0004
 -13377599.09747 -11435195.02744  23314845.8524   23314841.1604
        42.0004         26.0004
 -19668455.60048 -15309001.36145  21632578.3364   21632573.1054
        49.7504         35.5004
 -17082350.25448 -13299035.30046  20812976.6254   20812971.4064
        48.0004         36.7504
 -14399635.88047 -11203126.61044  22942322.3754   22942318.7544
        43.5004         27.7504
 -10563978.74547  -8144882.31244  23191593.6804   23191589.8094
        44.5004         29.2504
  -3530282.84446  -2635944.63142  24357275.8204   24357273.7304
        36.2504         16.7504
  -3995657.47546  -3090042.93643  24339980.6724   24339979.0124
        40.0004         19.0004
 -20643080.80848 -15985399.97347  21025646.0164   21025644.4384
        51.7504         43.0004
 -12336865.01646  -9570072.61744  23570944.8284   23570938.2384
        41.7504         27.0004
 18  7 27  2  6  0.0000000  0 10G13G11G17G28G07G15G18G01G30G19
 -22882613.86348 -17743471.61546  20878219.7734   20878214.5124
        49.7504         37.2504
 -13376524.67846 -11434357.82744  23315050.5554   23315045.7154
        39.5004         25.2504
 -19740026.98248 -15364771.27846  21618958.8834   21618954.1214
        48.7504         36.2504
 -17047029.29648 -13271512.48646  20819698.6484   20819692.9614
        48.5004         37.2504
 -14322218.43647 -11142801.38744  22957054.7114   22957050.6414
        42.0004         29.0004
 -10628951.26747  -8195510.25044  23179230.2734   23179225.8094
        46.0004         28.5004
  -3547082.13946  -2649034.97242  24354079.2274   24354076.8204
        36.0004         17.7504
  -4047918.88546  -3130766.09443  24330034.4774   24330033.9804
        39.7504         20.5004
 -20597593.33648 -15949955.20147  21034302.2274   21034300.5044
        51.2504         42.7504
 -12454084.27247  -9661412.33444  23548639.2504   23548631.7344
        42.0004         26.7504
 18  7 27  2  6 30.0000000  0 10G13G11G17G28G07G15G18G01G30G19
 -22903477.45748 -17759728.97246  20874249.4534   20874243.7274
        49.2504         36.7504
 -13374869.01446 -11433067.71343  23315365.2114   23315361.3324
        39.0004         23.0004
 -19811178.05648 -15420213.69146  21605419.2274   21605414.1604
        49.2504         36.2504
 -17011480.44748 -13243812.09746  20826463.3054   20826457.6724
        48.5004         37.7504
 -14244564.68447 -11082292.00744  22971830.8524   22971828.2934
        42.2504         27.7504
 -10693470.86647  -8245785.25344  23166952.6174   23166948.6024
        45.7504         29.5004
  -3563332.97745  -2661697.94542  24350986.4534   24350984.6414
        35.5004         16.7504
  -4099781.96746  -3171178.88243  24320166.7894   24320164.8674
        39.5004         21.7504
 -20551781.13248 -15914257.40147  21043019.8674   21043018.3444
        51.0004         42.0004
 -12571163.24547  -9752642.71844  23526359.9384   23526352.8834
        42.0004         26.0004
 18  7 27  2  7  0.0000000  0 10G13G11G17G28G07G15G18G01G30G19
 -22923744.42848 -17775521.43046  20870393.0554   20870387.0434
        49.5004         37.0004
 -13372631.66046 -11431324.32643  23315790.1414   23315786.5554
        41.0004         23.0004
 -19881907.30448 -15475327.40846  21591959.9144   21591955.1884
        49.2504         36.5004
 -16975705.62048 -13215935.61446  20833270.8834   20833265.7074
        48.5004         37.2504
 -14166675.60547 -11021599.27944  22986653.1484   22986649.6994
        42.5004         27.5004
 -10757535.76447  -8295705.94945  23154761.1804   23154757.2704
        45.7504         30.0004
  -3579034.02746  -2673932.52142  24347999.4304   24347996.0314
        36.5004         17.2504
  -4151244.25746  -3211279.36143  24310373.6254   24310372.7814
        41.2504         22.0004
 -20505644.49048 -15878306.77646  21051798.8984   21051797.1844
        51.5004         41.5004
 -12688099.71246  -9843762.05944  23504106.9614   23504100.4964
        40.5004         25.2504
 18  7 27  2  7 30.0000000  0 10G13G11G17G28G07G15G18G01G30G19
 -22943413.38748 -17790847.90746  20866649.9844   20866644.9024
        49.2504         37.0004
 -13369811.45746 -11429126.77043  23316327.0394   23316323.1374
        41.0004         22.5004
 -19952212.34348 -15530110.56346  21578580.4384   21578576.4224
        48.5004         36.5004
 -16939705.61847 -13187883.66946  20840121.5864   20840116.1604
        47.7504         38.0004
 -14088551.07547 -10960723.03844  23001520.2194   23001516.6954
        43.5004         27.5004
 -10821143.82547  -8345270.65944  23142657.7894   23142652.5784
        46.0004         29.2504
  -3594183.62845  -2685737.37042  24345116.0784   24345112.9614
        35.0004         17.2504
  -4202302.69046  -3251065.12143  24300656.9304   24300656.4304
        40.0004         21.5004
 -20459183.07148 -15842103.08546  21060640.4614   21060638.8364
        51.2504         41.2504
 -12804890.29346  -9934767.67744  23481881.7814   23481875.7854
        40.5004         24.0004
 18  7 27  2  8  0.0000000  0 10G13G11G17G28G07G15G18G01G30G19
 -22962483.45448 -17805707.70146  20863021.4454   20863015.9884
        50.0004         37.5004
 -13366408.98146 -11426475.47643  23316974.6094   23316970.2704
        40.7504         22.7504
 -20022091.20948 -15584561.62446  21565283.2814   21565279.7704
        48.7504         36.2504
 -16903481.92848 -13159657.42346  20847014.6174   20847009.2584
        48.0004         37.5004
 -14010191.93947 -10899664.03244  23016431.6954   23016427.9884
        43.5004         28.2504
 -10884293.11647  -8394477.90045  23130640.3204   23130636.3874
        46.5004         31.0004
  -3608780.89545  -2697111.85942  24342336.0944   24342333.4224
        33.5004         16.7504
  -4252954.77946  -3290534.28243  24291018.6094   24291017.9384
        41.0004         21.7504
 -20412397.05548 -15805646.48246  21069543.6334   21069541.4654
        51.2504         41.2504
 -12921532.49946 -10025657.72644  23459686.1094   23459679.4734
        41.0004         24.7504
 18  7 27  2  8 30.0000000  0 10G13G11G17G28G07G15G18G01G30G19
 -22980953.84848 -17820100.22346  20859506.0554   20859501.3444
        49.2504         37.0004
 -13362423.74547 -11423370.11344  23317733.7814   23317728.1954
        42.0004         24.0004
 -20091542.44848 -15638679.46346  21552067.2424   21552063.3164
        49.2504         37.2504
 -16867036.62648 -13131258.49046  20853949.9774   20853944.4144
        48.7504         37.7504
 -13931598.99847 -10838422.82744  23031387.4304   23031383.6254
        43.2504         28.7504
 -10946981.79547  -8443326.22545  23118711.2584   23118706.6334
        46.0004         30.7504
  -3622824.59846  -2708054.93642  24339667.2814   24339661.9304
        36.0004         16.7504
  -4303198.19846  -3329684.98443  24281457.2114   24281456.4454
        41.5004         22.0004
 -20365286.86048 -15768937.25346  21078508.6094   21078506.4454
        50.5004         40.7504
 -13038023.49146 -10116429.94244  23437518.7894   23437512.3754
        41.5004         27.0004
 18  7 27  2  9  0.0000000  0 10G13G11G17G28G07G15G18G01G30G19
 -22998823.47948 -17834024.61346  20856105.7814   20856100.3794
        48.7504         36.5004
 -13357854.77846 -11419809.88744  23318602.8524   23318598.2074
        40.5004         25.5004
 -20160563.53448 -15692462.13446  21538932.8594   21538929.5164
        49.2504         37.0004
 -16830370.61248 -13102687.56946  20860927.4144   20860921.9694
        48.7504         37.5004
 -13852772.44047 -10776999.56744  23046387.8444   23046383.2814
        42.7504         29.0004
 -11009207.38747  -8491813.69145  23106870.1334   23106865.3484
        45.5004         30.0004
  -3636313.30545  -2718565.60642  24337100.7894   24337095.7854
        35.5004         17.7504
  -4353029.92446  -3368514.87443  24271974.5474   24271973.9104
        41.2504         22.5004
 -20317852.09448 -15731975.11346  21087534.5314   21087533.1294
        51.5004         40.5004
 -13154360.16447 -10207081.93044  23415380.7814   23415374.6024
        42.2504         28.2504
 18  7 27  2  9 30.0000000  0 10G13G11G17G28G07G15G18G01G30G19
 -23016090.96248 -17847479.81546  20852819.6724   20852815.1604
        48.2504         36.5004
 -13352701.53746 -11415794.40043  23319583.5474   23319578.7384
        39.0004         22.7504
 -20229152.24148 -15745907.87646  21525881.3364   21525877.3634
        50.2504         38.2504
 -16793485.10848 -13073945.62446  20867946.4844   20867940.6884
        48.7504         37.2504
 -13773712.47547 -10715394.43644  23061432.6884   23061427.7034
        43.5004         28.7504
 -11070968.08547  -8539938.90244  23095117.5474   23095112.9304
        44.2504         29.0004
  -3649245.13645  -2728642.38242  24334638.2504   24334634.7154
        34.7504         17.7504
  -4402446.80647  -3407021.52843  24262570.9064   24262570.3094
        42.0004         22.5004
 -20270092.38648 -15694759.77346  21096623.2504   21096620.5594
        50.5004         40.7504
 -13270539.24447 -10297611.09744  23393272.7114   23393266.5084
        43.2504         29.5004
 18  7 27  2 10  0.0000000  0 10G13G11G17G28G07G15G18G01G30G19
 -23032755.50948 -17860465.19246  20849648.2274   20849643.7814
        48.0004         36.5004
 -13346963.85246 -11411323.48243  23320673.8284   23320670.8014
        38.5004         23.0004
 -20297306.95248 -15799015.44446  21512911.7734   21512908.2114
        50.0004         38.5004
 -16756381.43747 -13045033.68146  20875006.2974   20875001.0944
        47.7504         37.0004
 -13694419.32247 -10653607.58844  23076521.0314   23076517.5204
        42.7504         27.0004
 -11132261.79547  -8587700.23744  23083453.5704   23083447.9534
        44.0004         28.7504
  -3661619.26545  -2738284.57143  24332282.0314   24332277.9924
        33.5004         18.5004
  -4451446.43947  -3445203.07343  24253246.9694   24253246.3984
        42.0004         22.7504
 -20222007.95248 -15657291.40546  21105773.7894   21105771.3164
        50.5004         40.5004
 -13386558.18747 -10388015.48144  23371195.2504   23371189.2504
        43.5004         29.7504
 18  7 27  2 10 30.0000000  0 10G13G11G17G28G07G15G18G01G30G19
 -23048816.10248 -17872979.94946  20846592.7034   20846587.7424
        49.2504         37.0004
 -13340641.28846 -11406396.81144  23321878.0474   23321874.0704
        39.0004         24.2504
 -20365025.18648 -15851782.88846  21500025.4844   21500021.4734
        50.2504         38.5004
 -16719060.82447 -13015952.68846  20882108.8364   20882102.8284
        47.5004         36.7504
 -13614893.85647 -10591639.75744  23091655.0784   23091650.4534
        44.5004         28.0004
 -11193086.35247  -8635096.00344  23071878.7194   23071873.6844
        45.5004         27.7504
  -3673434.28545  -2747491.07842  24330035.2734   24330032.0984
        34.5004         17.7504
  -4500026.02046  -3483057.27043  24244001.9224   24244001.9964
        41.7504         21.5004
 -20173598.60648 -15619569.83846  21114985.6254   21114982.6724
        51.0004         39.7504
 -13502413.64847 -10478292.46744  23349148.7584   23349142.6914
        43.0004         29.2504
 18  7 27  2 11  0.0000000  0 10G13G11G17G28G07G15G18G01G30G19
 -23064272.52948 -17885023.93346  20843651.5394   20843646.3594
        50.0004         38.0004
 -13333733.92847 -11401014.47244  23323193.5704   23323188.3834
        42.2504         25.2504
 -20432305.76548 -15904209.32146  21487222.1174   21487218.4494
        50.5004         38.7504
 -16681525.41448 -12986704.32446  20889251.1024   20889245.8244
        48.0004         37.0004
 -13535136.86347 -10529491.49644  23106831.9454   23106827.4304
        44.0004         28.2504
 -11253440.38347  -8682125.13644  23060393.6094   23060388.4414
        44.7504         28.5004
  -3684689.60345  -2756261.46042  24327893.2344   24327889.9964
        33.0004         17.2504
  -4548183.54046  -3520582.60843  24234837.8594   24234837.5474
        40.7504         20.7504
 -20124865.10648 -15581595.69346  21124259.1644   21124256.4264
        50.5004         39.5004
 -13618103.30147 -10568440.25445  23327133.4614   23327127.7704
        43.2504         30.0004
 18  7 27  2 11 30.0000000  0 10G13G11G17G28G07G15G18G01G30G19
 -23079123.24548 -17896595.93146  20840825.7034   20840820.6724
        50.0004         37.5004
 -13326240.92046 -11395175.77644  23324619.2974   23324613.9534
        41.0004         24.0004
 -20499146.59448 -15956293.07246  21474503.2194   21474498.9734
        51.2504         39.0004
 -16643776.29348 -12957289.43346  20896434.8834   20896429.9574
        48.7504         38.0004
 -13455148.48747 -10467162.93944  23122052.4694   23122048.5594
        44.2504         26.2504
 -11313321.54347  -8728785.77544  23048998.8754   23048993.3134
        44.0004         27.7504
  -3695383.66345  -2764594.44543  24325858.1954   24325856.1094
        34.5004         18.5004
  -4595915.88846  -3557776.60843  24225754.7274   24225754.5394
        41.5004         21.0004
 -20075806.94548 -15543368.58046  21133594.5004   21133591.6914
        51.0004         39.7504
 -13733623.97347 -10658456.33844  23305150.3364   23305144.6024
        42.2504         28.7504
 18  7 27  2 12  0.0000000  0 10G13G11G17G28G07G15G18G01G30G19
 -23093367.56648 -17907695.39646  20838114.7814   20838109.8554
        48.5004         38.0004
 -13318162.37447 -11388880.81043  23326155.7894   23326150.4144
        42.0004         23.0004
 -20565545.37248 -16008032.39646  21461868.3204   21461863.5164
        51.0004         39.0004
 -16605814.50748 -12927708.83146  20903659.1024   20903653.9184
        49.0004         38.2504
 -13374929.27947 -10404654.49844  23137319.1414   23137313.1294
        44.7504         26.5004
 -11372728.03547  -8775076.54644  23037694.7194   23037689.4694
        44.5004         29.5004
  -3705515.20045  -2772489.17943  24323927.8834   24323925.5664
        33.0004         18.2504
  -4643220.46246  -3594637.27143  24216753.2034   24216751.9304
        41.5004         21.5004
 -20026424.12048 -15504888.47146  21142991.9694   21142989.5044
        50.0004         40.0004
 -13848972.88247 -10748338.59744  23283200.7814   23283194.5234
        42.7504         29.0004
 18  7 27  2 12 30.0000000  0 10G13G11G17G28G07G15G18G01G30G19
 -23107005.43148 -17918322.31946  20835519.0944   20835514.4264
        48.7504         37.5004
 -13309498.53746 -11382129.77343  23327804.3984   23327800.1844
        41.0004         22.7504
 -20631501.30148 -16059426.64546  21449317.1334   21449312.2234
        51.0004         38.2504
 -16567642.43548 -12897964.36446  20910923.1024   20910917.4964
        48.5004         38.5004
 -13294480.31947 -10341967.01744  23152627.5784   23152621.7544
        44.5004         26.5004
 -11431658.36647  -8820996.29744  23026480.0084   23026475.1294
        45.0004         28.5004
  -3715084.11145  -2779945.50443  24322109.5084   24322106.4734
        33.7504         18.5004
  -4690095.49347  -3631163.26243  24207833.6334   24207831.9384
        42.5004         22.2504
 -19976717.56748 -15466156.11546  21152450.6644   21152447.9304
        51.5004         40.0004
 -13964147.83047 -10838085.29344  23261283.8204   23261276.8634
        43.5004         28.0004
 18  7 27  2 13  0.0000000  0 10G13G11G17G28G07G15G18G01G30G19
 -23120035.82548 -17928475.88846  20833040.3364   20833034.2274
        49.5004         37.2504
 -13300248.86846 -11374922.25444  23329564.2114   23329560.5084
        39.5004         24.2504
 -20697012.06648 -16110474.00146  21436850.8284   21436845.9804
        50.7504         37.7504
 -16529260.85848 -12868056.65346  20918226.9454   20918221.8674
        48.5004         38.0004
 -13213802.16647 -10279100.97544  23167980.1564   23167974.6884
        42.5004         26.0004
 -11490110.34847  -8866543.31144  23015357.5394   23015352.1484
        46.0004         29.2504
  -3724088.76746  -2786962.06442  24320396.5474   24320392.2304
        36.2504         17.2504
  -4736538.03447  -3667352.23543  24198995.2274   24198994.5744
        42.2504         21.5004
 -19926686.92348 -15427171.22946  21161971.4534   21161968.6054
        50.0004         40.0004
 -14079145.46747 -10927693.84644  23239400.4924   23239393.8714
        44.5004         27.2504
 18  7 27  2 13 30.0000000  0 10G13G11G17G28G07G15G18G01G30G19
 -23132457.11748 -17938154.84446  20830676.4534   20830671.8134
        49.2504         38.0004
 -13290412.65146 -11367257.66544  23331436.9384   23331432.6054
        41.7504         24.0004
 -20762074.93048 -16161172.35446  21424469.7034   21424464.7194
        51.0004         37.7504
 -16490670.57248 -12837986.31246  20925570.1954   20925565.1644
        49.0004         38.0004
 -13132894.40747 -10216056.02644  23183376.1334   23183371.2424
        44.0004         28.0004
 -11548081.86947  -8911715.93144  23004325.7734   23004320.8014
        46.0004         29.0004
  -3732527.50945  -2793537.72642  24318789.1564   24318784.7304
        34.2504         17.2504
  -4782544.83246  -3703201.64143  24190240.2424   24190239.5004
        41.0004         22.7504
 -19876331.60148 -15387933.33146  21171553.2974   21171551.3484
        50.5004         40.0004
 -14193962.17347 -11017161.43344  23217551.1644   23217544.4574
        43.7504         28.0004
 18  7 27  2 14  0.0000000  0 10G13G11G17G28G07G15G18G01G30G19
 -23144268.89748 -17947358.81746  20828429.1884   20828424.3364
        49.5004         38.7504
 -13279989.87546 -11359136.02643  23333420.9304   23333415.7774
        41.7504         23.7504
 -20826688.41948 -16211520.54046  21412174.0554   21412168.7774
        50.5004         36.7504
 -16451873.26447 -12807754.65246  20932952.8754   20932948.0664
        47.7504         38.0004
 -13051757.96547 -10152832.86044  23198815.6884   23198811.6134
        44.0004         26.7504
 -11605570.88347  -8956512.56844  22993385.8364   22993380.1564
        45.7504         28.0004
  -3740399.76545  -2799671.92542  24317291.7894   24317288.1524
        35.2504         16.2504
  -4828113.65546  -3738709.79143  24181569.3754   24181568.7154
        41.7504         22.0004
 -19825651.93448 -15348442.71146  21181197.5784   21181195.8364
        50.5004         40.7504
 -14308595.64247 -11106486.24844  23195736.9694   23195730.6564
        44.0004         27.5004
 18  7 27  2 14 30.0000000  0 10G13G11G17G28G07G15G18G01G30G19
 -23155470.48648 -17956087.34446  20826298.0164   20826291.9024
        49.0004         38.7504
 -13268980.19347 -11350557.04743  23335515.5864   23335510.2074
        42.0004         22.7504
 -20890850.90448 -16261517.29546  21399963.8054   21399958.6374
        50.2504         36.2504
 -16412870.10948 -12777362.59246  20940374.9384   20940370.0084
        48.5004         38.0004
 -12970393.16547 -10089431.75944  23214299.5234   23214294.9264
        43.5004         26.0004
 -11662575.54047  -9000931.78244  22982537.8444   22982533.3324
        45.0004         28.0004
  -3747704.02945  -2805363.60743  24315902.5084   24315897.9734
        35.2504         18.2504
  -4873241.82046  -3773874.56543  24172981.5004   24172980.3984
        40.5004         22.0004
 -19774647.87848 -15308699.32146  21190903.5084   21190901.4104
        49.7504         40.5004
 -14423042.56147 -11195665.69444  23173958.4224   23173951.9384
        43.5004         28.2504
 18  7 27  2 15  0.0000000  0 10G13G11G17G28G07G15G18G01G30G19
 -23166061.19448 -17964339.83746  20824281.9694   20824277.1414
        48.0004         38.0004
 -13257383.89246 -11341520.96743  23337721.2664   23337717.7584
        41.5004         22.5004
 -20954560.65748 -16311161.26245  21387840.2114   21387835.2384
        49.5004         35.7504
 -16373662.61948 -12746811.31446  20947835.8054   20947831.3954
        48.5004         38.2504
 -12888800.94847 -10025853.43244  23229825.9844   23229821.3484
        43.0004         27.0004
 -11719094.10147  -9044972.21244  22971782.7814   22971777.7034
        44.5004         28.2504
  -3754439.82745  -2810612.27543  24314619.5554   24314617.3984
        35.0004         18.2504
  -4917927.02946  -3808694.16843  24164478.3284   24164477.2774
        41.5004         22.0004
 -19723319.70548 -15268703.36146  21200670.8754   21200668.6724
        49.0004         40.5004
 -14537300.56747 -11284697.89944  23152216.4534   23152209.3134
        43.5004         29.5004
 18  7 27  2 15 30.0000000  0 10G13G11G17G28G07G15G18G01G30G19
 -23176040.61747 -17972116.03046  20822382.2814   20822377.7974
        47.0004         37.7504
 -13245200.98547 -11332027.79443  23340040.0864   23340034.4884
        42.0004         22.5004
 -21017816.32648 -16360451.39746  21375802.9844   21375798.3244
        49.5004         36.2504
 -16334252.57348 -12716102.18846  20955335.3364   20955330.4494
        48.5004         38.2504
 -12806982.09647  -9962098.53444  23245395.1884   23245391.0784
        43.5004         27.0004
 -11775125.35947  -9088632.94644  22961120.3914   22961115.1134
        45.0004         28.0004
  -3760606.40645  -2815417.39642  24313446.3524   24313444.0044
        35.7504         17.2504
  -4962167.17047  -3843166.95843  24156059.5314   24156058.0824
        42.0004         22.0004
 -19671667.87548 -15228455.20246  21210499.7814   21210497.6604
        49.5004         39.2504
 -14651366.66547 -11373580.58045  23130510.0704   23130503.7704
        43.5004         30.5004
 18  7 27  2 16  0.0000000  0 10G13G11G17G28G07G15G18G01G30G19
 -23185408.57247 -17979415.76546  20820599.8914   20820594.9494
        47.0004         38.0004
 -13232431.35347 -11322077.44943  23342470.0394   23342464.3954
        42.0004         22.0004
 -21080615.67748 -16409385.96245  21363852.9064   21363847.7034
        48.7504         35.2504
 -16294641.21248 -12685236.21746  20962873.3834   20962868.2894
        48.7504         38.5004
 -12724937.12147  -9898167.44044  23261008.1174   23261003.6254
        42.0004         27.7504
 -11830667.32347  -9131912.41544  22950551.4224   22950545.7624
        45.0004         27.5004
  -3766202.78346  -2819778.19342  24312382.0634   24312379.2894
        37.2504         17.2504
  -5005959.57547  -3877290.89743  24147726.4534   24147724.4144
        42.0004         22.2504
 -19619692.39448 -15187954.85946  21220390.3364   21220387.8674
        48.5004         39.0004
 -14765237.87047 -11462311.39344  23108841.3444   23108835.1524
        43.2504         29.2504
 18  7 27  2 16 30.0000000  0 10G13G11G17G28G07G15G18G01G30G19
 -23194163.41548 -17986237.72246  20818934.3674   20818929.3324
        48.5004         38.5004
 -13219074.53346 -11311669.53243  23345012.1644   23345006.4924
        41.5004         21.7504
 -21142956.33248 -16457963.10346  21351989.2974   21351984.8674
        48.7504         36.2504
 -16254829.27548 -12654213.94046  20970449.2274   20970444.0594
        48.7504         38.5004
 -12642666.02447  -9834060.11844  23276663.4614   23276659.8594
        42.7504         26.2504
 -11885717.80247  -9174808.90944  22940075.1174   22940070.2074
        45.2504         28.5004
  -3771227.51946  -2823693.57142  24311425.4144   24311422.6644
        36.2504         17.2504
  -5049301.34346  -3911063.67043  24139478.2034   24139477.2934
        41.2504         22.0004
 -19567392.80348 -15147201.94846  21230342.5704   21230340.3594
        50.0004         38.0004
 -14878910.89847 -11550887.78644  23087209.7194   23087203.6054
        43.2504         29.5004
 18  7 27  2 17  0.0000000  0 10G13G11G17G28G07G15G18G01G30G19
 -23202304.80447 -17992581.66546  20817384.6174   20817380.0394
        47.0004         38.2504
 -13205131.02746 -11300804.46143  23347665.6174   23347659.9694
        41.0004         22.5004
 -21204837.28448 -16506182.02046  21340214.0474   21340209.4654
        48.7504         36.5004
 -16214818.22948 -12623036.51646  20978063.4844   20978057.7304
        48.7504         38.7504
 -12560169.93847  -9769777.51644  23292362.5004   23292358.4804
        42.2504         26.2504
 -11940274.72347  -9217320.80844  22929693.8054   22929688.7154
        46.0004         29.0004
  -3775680.09246  -2827163.11443  24310577.9454   24310575.4304
        36.7504         18.2504
  -5092190.27546  -3944483.62043  24131318.0314   24131316.4574
        41.0004         21.5004
 -19514769.53948 -15106196.83146  21240357.1254   21240354.1174
        49.7504         38.7504
 -14992383.26247 -11639307.80544  23065616.7424   23065610.3244
        42.7504         29.2504
 18  7 27  2 17 30.0000000  0 10G13G11G17G28G07G15G18G01G30G19
 -23209832.11848 -17998447.13346  20815952.6024   20815947.4494
        48.0004         38.0004
 -13190600.53446 -11289481.99743  23350430.1564   23350425.9024
        41.7504         22.2504
 -21266256.56348 -16554041.20346  21328526.2504   21328522.1564
        49.0004         37.2504
 -16174609.63848 -12591705.14346  20985714.7664   20985709.6214
        49.5004         38.7504
 -12477449.03447  -9705319.70044  23308103.5554   23308099.6094
        43.0004         26.5004
 -11994336.53347  -9259446.90044  22919405.7504   22919401.3794
        45.5004         29.0004
  -3779559.66346  -2830186.13642  24309840.1414   24309837.1844
        37.5004         16.7504
  -5134623.85046  -3977548.71343  24123242.1414   24123241.2234
        40.7504         21.5004
 -19461822.59948 -15064939.48046  21250432.4534   21250429.5004
        49.7504         39.0004
 -15105651.85847 -11727569.03644  23044061.9694   23044055.8714
        42.0004         29.2504
 18  7 27  2 18  0.0000000  0 10G13G11G17G28G07G15G18G01G30G19
 -23216745.38648 -18003834.10746  20814637.0634   20814631.8954
        49.7504         38.7504
 -13175483.08946 -11277702.16843  23353306.2814   23353302.1604
        41.5004         22.5004
 -21327212.73248 -16601539.49746  21316927.3054   21316923.0394
        50.0004         38.0004
 -16134204.79248 -12560220.86246  20993403.6334   20993398.7664
        48.7504         38.2504
 -12394503.97347  -9640687.25244  23323887.7504   23323883.8444
        43.0004         27.7504
 -12047901.92447  -9301186.16145  22909212.8284   22909208.7774
        46.0004         30.0004
  -3782865.48446  -2832762.06542  24309211.0864   24309208.7624
        37.5004         17.7504
  -5176599.86646  -4010257.27543  24115254.0634   24115254.3594
        39.5004         21.5004
 -19408552.30248 -15023430.16746  21260569.2274   21260566.6884
        51.2504         38.2504
 -15218714.05147 -11815669.43245  23022547.2034   23022541.0394
        43.0004         30.2504
 18  7 27  2 18 30.0000000  0 10G13G11G17G28G07G15G18G01G30G19
 -23223044.09648 -18008742.18546  20813438.3984   20813433.1914
        49.2504         38.0004
 -13159779.27847 -11265465.45443  23356295.9774   23356290.3484
        42.0004         21.5004
 -21387704.28248 -16648675.76646  21305416.4774   21305412.1374
        50.7504         39.7504
 -16093605.36948 -12528584.95746  21001128.9064   21001124.7544
        48.5004         38.5004
 -12311335.96046  -9575881.04144  23339713.6954   23339710.2584
        41.5004         26.2504
 -12100969.11147  -9342537.20545  22899114.7194   22899109.9494
        46.5004         30.0004
  -3785596.81246  -2834890.35742  24308689.0554   24308687.0984
        36.2504         17.7504
  -5218116.05646  -4042607.50843  24107354.0784   24107353.3874
        41.2504         21.5004
 -19354959.01148 -14981669.17946  21270767.5004   21270765.3914
        49.7504         39.0004
 -15331567.02347 -11903606.81144  23001072.5784   23001066.0234
        43.2504         29.2504
 18  7 27  2 19  0.0000000  0 11G13G11G17G28G07G15G18G01G30G19G24
 -23228727.80048 -18013171.06646  20812356.9694   20812351.8484
        48.0004         38.0004
 -13143489.12146 -11252771.82043  23359395.0634   23359389.8324
        40.7504         21.5004
 -21447729.35248 -16695448.54546  21293994.3054   21293989.7774
        50.5004         39.7504
 -16052812.45847 -12496798.30046  21008891.6724   21008887.4574
        47.7504         38.0004
 -12227945.29446  -9510901.35844  23355582.3054   23355578.6884
        41.7504         25.2504
 -12153536.52047  -9383498.84244  22889111.9694   22889106.4144
        46.0004         29.0004
  -3787753.21346  -2836570.66243  24308280.7894   24308278.4454
        37.2504         19.0004
  -5259170.17146  -4074597.71643  24099541.7974   24099540.7114
        40.7504         22.2504
 -19301042.97348 -14939656.69446  21281027.5704   21281025.0164
        49.5004         38.5004
 -15444208.08447 -11991379.09444  22979637.8754   22979630.0984
        44.2504         28.7504
    424783.67116                  25438713.609
        37.000
 18  7 27  2 19 30.0000000  0 11G13G11G17G28G07G15G18G01G30G19G24
 -23233798.27847 -18017122.10346  20811392.2424   20811386.8054
        47.7504         38.0004
 -13126614.94446 -11239623.12443  23362605.9064   23362600.5314
        39.2504         21.5004
 -21507288.89948 -16741858.58546  21282660.6644   21282655.9804
        51.2504         40.0004
 -16011829.97748 -12464863.91946  21016690.2424   21016685.6214
        48.2504         37.5004
 -12144335.27847  -9445750.73044  23371492.9924   23371489.4964
        43.0004         26.5004
 -12205604.68147  -9424071.44745  22879203.5004   22879198.4384
        46.5004         30.7504
  -3789335.91045  -2837803.93642  24307980.7974   24307976.6454
        35.5004         16.7504
  -5299762.22646  -4106227.81843  24091816.8834   24091816.4574
        40.2504         21.2504
 -19246806.56148 -14897394.57946  21291348.4064   21291346.5314
        49.7504         38.7504
 -15556636.60347 -12078985.77144  22958243.6724   22958235.6024
        44.0004         28.0004
    325986.970 5                  25419913.078
        35.500
 18  7 27  2 20  0.0000000  0 11G13G11G17G28G07G15G18G01G30G19G24
 -23238249.60347 -18020590.67446  20810544.9304   20810539.3674
        47.7504         37.5004
 -13109151.52547 -11226015.27843  23365929.6174   23365924.5554
        42.0004         22.2504
 -21566375.75348 -16787900.29946  21271416.8364   21271412.1844
        50.7504         40.5004
 -15970653.79047 -12432778.58346  21024526.0634   21024521.0434
        47.7504         38.0004
 -12060500.96247  -9380425.34144  23387446.0394   23387442.6414
        43.0004         27.0004
 -12257166.26247  -9464249.31244  22869391.2664   22869386.2664
        45.7504         29.7504
  -3790338.94845  -2838585.54842  24307789.0164   24307785.5904
        35.0004         17.7504
  -5339884.31446  -4137491.77343  24084183.1174   24084181.2544
        40.5004         21.7504
 -19192244.49548 -14854878.70746  21301731.0944   21301729.3874
        48.2504         38.7504
 -15668844.58147 -12166420.59344  22936890.4614   22936882.9224
        43.5004         28.0004
    227161.209 5                  25401107.922
        35.250
 18  7 27  2 20 30.0000000  0 11G13G11G17G28G07G15G18G01G30G19G24
 -23242084.88648 -18023579.22646  20809814.9534   20809809.2734
        48.0004         37.2504
 -13091102.40047 -11211951.00343  23369364.1954   23369359.5394
        42.0004         22.0004
 -21624991.58948 -16833574.98346  21260262.4924   21260257.5944
        51.0004         40.2504
 -15929288.38548 -12400545.81046  21032397.7504   21032392.0864
        48.2504         38.0004
 -11976446.03447  -9314928.07044  23403441.2974   23403438.1294
        43.5004         27.2504
 -12308223.32847  -9504034.06545  22859675.7814   22859670.9104
        46.2504         30.7504
  -3790764.83146  -2838917.34443  24307708.2344   24307704.9304
        37.0004         18.5004
  -5379537.32546  -4168390.19943  24076636.6804   24076636.0864
        39.7504         21.0004
 -19137360.13347 -14812111.70046  21312175.1334   21312173.3324
        47.7504         38.5004
 -15780831.64147 -12253683.24544  22915580.2664   22915572.8984
        42.5004         28.0004
    128304.241 6                  25382295.820
        37.000
 18  7 27  2 21  0.0000000  0 11G13G11G17G28G07G15G18G01G30G19G24
 -23245302.51448 -18026086.48546  20809202.8834   20809197.5354
        48.0004         37.5004
 -13072466.61146 -11197429.61843  23372910.6254   23372906.8054
        41.5004         22.2504
 -21683133.40648 -16878880.29646  21249198.1414   21249193.5744
        51.5004         39.5004
 -15887733.58248 -12368165.45446  21040305.1254   21040300.5004
        48.0004         37.2504
 -11892170.20347  -9249258.64244  23419478.4454   23419475.2854
        42.0004         26.7504
 -12358772.90047  -9543423.34845  22850056.0704   22850052.1174
        45.5004         30.2504
  -3790611.81046  -2838798.14143  24307737.6884   24307734.0354
        36.0004         19.0004
  -5418717.85246  -4198920.45143  24069180.7114   24069180.3364
        40.2504         22.5004
 -19082152.46348 -14769092.77146  21322680.9144   21322679.3634
        48.0004         38.5004
 -15892593.96346 -12340770.77444  22894312.2034   22894305.5984
        41.2504         26.7504
     29417.769 6                  25363478.430
        36.750
 18  7 27  2 21 30.0000000  0 11G13G11G17G28G07G15G18G01G30G19G24
 -23247902.87147 -18028112.73546  20808707.9924   20808702.6884
        47.7504         37.7504
 -13053245.13446 -11182451.85443  23376567.6484   23376563.5744
        40.7504         22.2504
 -21740800.88848 -16923816.00446  21238224.4064   21238219.9414
        51.0004         38.5004
 -15845991.97847 -12335639.54446  21048248.2664   21048243.9884
        47.2504         37.5004
 -11807674.83447  -9183418.15544  23435557.7114   23435554.0904
        44.5004         26.0004
 -12408814.23647  -9582416.61045  22840533.7814   22840528.9574
        45.5004         30.0004
  -3789879.95045  -2838227.87343  24307876.2344   24307872.7974
        34.5004         19.0004
  -5457424.46646  -4229081.45143  24061815.1804   24061813.2074
        40.5004         21.7504
 -19026622.71448 -14725822.86546  21333248.0634   21333246.7074
        48.0004         39.5004
 -16004129.88646 -12427681.87544  22873087.4454   22873080.9574
        41.0004         28.0004
    -69498.281 6                  25344655.203
        38.750
 18  7 27  2 22  0.0000000  0 11G13G11G17G28G07G15G18G01G30G19G24
 -23249886.07847 -18029658.11546  20808330.2814   20808325.2934
        47.5004         37.5004
 -13033438.44546 -11167018.10243  23380336.6724   23380332.9654
        40.2504         22.5004
 -21797992.73848 -16968381.07346  21227340.7344   21227336.3094
        50.0004         38.0004
 -15804065.20847 -12302969.35346  21056227.0634   21056222.1804
        47.2504         37.5004
 -11722961.29447  -9117407.68044  23451678.4534   23451674.0124
        42.7504         26.5004
 -12458345.55847  -9621012.45845  22831108.5784   22831103.9924
        46.5004         31.0004
  -3788569.24345  -2837206.54543  24308125.5084   24308123.6724
        35.0004         19.0004
  -5495655.31246  -4258871.68343  24054539.7114   24054538.5124
        40.7504         20.2504
 -18970771.33148 -14682302.32846  21343876.3524   21343874.5004
        50.2504         39.2504
 -16115436.51147 -12514414.30445  22851906.3674   22851900.3984
        43.2504         30.5004
   -168442.95746   -100455.37753  25325826.5234   25325824.3364
        37.7504         19.7504
 18  7 27  2 22 30.0000000  0 11G13G11G17G28G07G15G18G01G30G19G24
 -23251252.91848 -18030723.20346  20808070.5634   20808064.5594
        48.0004         37.0004
 -13013048.61946 -11151129.93843  23384217.3754   23384212.6954
        40.0004         21.2504
 -21854708.43948 -17012575.14746  21216548.0784   21216543.1684
        50.0004         36.5004
 -15761955.63747 -12270156.71546  21064239.8524   21064235.2464
        47.7504         37.0004
 -11638031.21347  -9051228.46944  23467840.0634   23467835.5044
        43.7504         27.7504
 -12507367.15347  -9659211.10945  22821779.7504   22821775.5084
        46.0004         31.0004
  -3786680.31346  -2835734.63242  24308485.9534   24308482.8674
        37.5004         17.2504
  -5533409.43046  -4288290.44543  24047355.8834   24047354.1484
        40.7504         21.5004
 -18914599.89648 -14638532.39846  21354565.6414   21354563.9614
        50.5004         39.5004
 -16226512.43847 -12600966.97245  22830770.1174   22830763.9804
        44.0004         31.0004
   -267416.72446   -177577.78043  25306992.9304   25306989.9144
        36.0004         18.2504
 18  7 27  2 23  0.0000000  0 11G13G11G17G28G07G15G18G01G30G19G24
 -23251999.59648 -18031305.03846  20807928.1094   20807922.9064
        48.2504         37.2504
 -12992071.69846 -11134784.29843  23388209.7274   23388203.6134
        41.5004         22.2504
 -21910942.84148 -17056394.16345  21205846.7424   21205841.5164
        49.2504         35.2504
 -15719660.48848 -12237199.47846  21072288.6334   21072283.2854
        48.2504         37.0004
 -11552881.65047  -8984878.20744  23484043.5704   23484038.6214
        43.0004         26.2504
 -12555873.68347  -9697008.41545  22812549.5394   22812545.0354
        47.5004         30.7504
  -3784208.81145  -2833808.79443  24308955.2814   24308953.3014
        35.7504         18.5004
  -5570680.73746  -4317333.03343  24040263.2424   24040262.4184
        41.2504         22.5004
 -18858104.66648 -14594510.16346  21365316.1254   21365314.1564
        50.0004         39.0004
 -16337351.09847 -12687334.76045  22809677.7894   22809671.8674
        45.0004         31.7504
   -366414.95446   -254719.26843  25288153.3364   25288151.6214
        36.5004         18.2504
